{"type": "FeatureCollection", "features": [{"type": "Feature", "geometry": {"type": "Point", "coordinates": [169.86667, 11.233333]}, "properties": {"iata": "UTK", "iso": "MH", "status": 1, "name": "Utirik Airport", "continent": "OC", "type": "airport", "size": "small"}}, {"type": "Feature", "geometry": {"type": "Point", "coordinates": [-158.61111, 59.27778]}, "properties": {"iata": "WKK", "iso": "US", "status": 1, "name": "Aleknagik / New Airport", "continent": "NA", "type": "airport", "size": "medium"}}, {"type": "Feature", "geometry": {"type": "Point", "coordinates": [-123.79444, 39.474445]}, "properties": {"iata": "FOB", "iso": "US", "status": 1, "name": "Fort Bragg Airport", "continent": "NA", "type": "airport", "size": "small"}}, {"type": "Feature", "geometry": {"type": "Point", "coordinates": [141.1, -6.066667]}, "properties": {"iata": "ABP", "iso": "PG", "status": 1, "name": "Atkamba Airport", "continent": "OC", "type": "airport", "size": "small"}}, {"type": "Feature", "geometry": {"type": "Point", "coordinates": [145.73334, -7.133333]}, "properties": {"iata": "ADC", "iso": "PG", "status": 1, "name": "Andakombe Airport", "continent": "OC", "type": "airport", "size": "small"}}, {"type": "Feature", "geometry": {"type": "Point", "coordinates": [-66.563545, 18.010702]}, "properties": {"iata": "TJP", "iso": "PR", "status": 1, "name": "Areopuerto Internacional Michael Gonzalez", "continent": "NA", "type": "airport", "size": "large"}}, {"type": "Feature", "geometry": {"type": "Point", "coordinates": [146.28334, -7.366667]}, "properties": {"iata": "AEK", "iso": "PG", "status": 1, "name": "Aseki Airport", "continent": "OC", "type": "airport", "size": "small"}}, {"type": "Feature", "geometry": {"type": "Point", "coordinates": [36.130333, 34.023167]}, "properties": {"iata": "OLR", "iso": "AF", "status": 1, "name": "Salerno Landing Zone Airport", "continent": "AS", "type": "airport", "size": "small"}}, {"type": "Feature", "geometry": {"type": "Point", "coordinates": [148.38333, -9.133333]}, "properties": {"iata": "AFR", "iso": "PG", "status": 1, "name": "Afore Airstrip", "continent": "OC", "type": "airport", "size": "small"}}, {"type": "Feature", "geometry": {"type": "Point", "coordinates": [160.85, -9.2]}, "properties": {"iata": "AFT", "iso": "SB", "status": 1, "name": "Afutara Aerodrome", "continent": "OC", "type": "airport", "size": "small"}}, {"type": "Feature", "geometry": {"type": "Point", "coordinates": [161.03334, -8.866667]}, "properties": {"iata": "ATD", "iso": "SB", "status": 1, "name": "Uru Harbour Airport", "continent": "OC", "type": "airport", "size": "small"}}, {"type": "Feature", "geometry": {"type": "Point", "coordinates": [159.55, -7.85]}, "properties": {"iata": "VEV", "iso": "SB", "status": 1, "name": "Barakoma Airport", "continent": "OC", "type": "airport", "size": "small"}}, {"type": "Feature", "geometry": {"type": "Point", "coordinates": [156.59778, -7.578333]}, "properties": {"iata": "GEF", "iso": "SB", "status": 1, "name": "Geva Airport", "continent": "OC", "type": "airport", "size": "small"}}, {"type": "Feature", "geometry": {"type": "Point", "coordinates": [144.07388, -4.168611]}, "properties": {"iata": "AGG", "iso": "PG", "status": 1, "name": "Angoram Airport", "continent": "OC", "type": "airport", "size": "small"}}, {"type": "Feature", "geometry": {"type": "Point", "coordinates": [160.68083, -8.697778]}, "properties": {"iata": "AKS", "iso": "SB", "status": 1, "name": "Auki Airport", "continent": "OC", "type": "airport", "size": "small"}}, {"type": "Feature", "geometry": {"type": "Point", "coordinates": [155.88333, -6.983333]}, "properties": {"iata": "BAS", "iso": "SB", "status": 1, "name": "Ballalae Airport", "continent": "OC", "type": "airport", "size": "small"}}, {"type": "Feature", "geometry": {"type": "Point", "coordinates": [159.58333, -8.1]}, "properties": {"iata": "FRE", "iso": "SB", "status": 1, "name": "Fera/Maringe Airport", "continent": "OC", "type": "airport", "size": "small"}}, {"type": "Feature", "geometry": {"type": "Point", "coordinates": [160.04819, -9.428592]}, "properties": {"iata": "HIR", "iso": "SB", "status": 1, "name": "Honiara International Airport", "continent": "OC", "type": "airport", "size": "medium"}}, {"type": "Feature", "geometry": {"type": "Point", "coordinates": [160.75, -9.733333]}, "properties": {"iata": "MBU", "iso": "SB", "status": 1, "name": "Babanakira Airport", "continent": "OC", "type": "airport", "size": "small"}}, {"type": "Feature", "geometry": {"type": "Point", "coordinates": [161.83333, -10.5]}, "properties": {"iata": "IRA", "iso": "SB", "status": 1, "name": "Ngorangora Airport", "continent": "OC", "type": "airport", "size": "small"}}, {"type": "Feature", "geometry": {"type": "Point", "coordinates": [166.85, -11.616667]}, "properties": {"iata": "SCZ", "iso": "SB", "status": 1, "name": "Santa Cruz/Graciosa Bay/Luova Airport", "continent": "OC", "type": "airport", "size": "small"}}, {"type": "Feature", "geometry": {"type": "Point", "coordinates": [157.26971, -8.32794]}, "properties": {"iata": "MUA", "iso": "SB", "status": 1, "name": "Munda Airport", "continent": "OC", "type": "airport", "size": "medium"}}, {"type": "Feature", "geometry": {"type": "Point", "coordinates": [156.83333, -8.116667]}, "properties": {"iata": "GZO", "iso": "SB", "status": 1, "name": "Nusatupe Airport", "continent": "OC", "type": "airport", "size": "small"}}, {"type": "Feature", "geometry": {"type": "Point", "coordinates": [155.56462, -7.417428]}, "properties": {"iata": "MNY", "iso": "SB", "status": 1, "name": "Mono Airport", "continent": "OC", "type": "airport", "size": "small"}}, {"type": "Feature", "geometry": {"type": "Point", "coordinates": [158.0, -8.166667]}, "properties": {"iata": "PRS", "iso": "SB", "status": 1, "name": "Parasi Airport", "continent": "OC", "type": "airport", "size": "small"}}, {"type": "Feature", "geometry": {"type": "Point", "coordinates": [160.3, -11.666667]}, "properties": {"iata": "RNL", "iso": "SB", "status": 1, "name": "Rennell/Tingoa Airport", "continent": "OC", "type": "airport", "size": "small"}}, {"type": "Feature", "geometry": {"type": "Point", "coordinates": [157.87506, -8.577956]}, "properties": {"iata": "EGM", "iso": "SB", "status": 1, "name": "Sege Airport", "continent": "OC", "type": "airport", "size": "small"}}, {"type": "Feature", "geometry": {"type": "Point", "coordinates": [161.25, -8.5]}, "properties": {"iata": "RUS", "iso": "SB", "status": 1, "name": "Marau Airport", "continent": "OC", "type": "airport", "size": "small"}}, {"type": "Feature", "geometry": {"type": "Point", "coordinates": [158.66667, -7.566667]}, "properties": {"iata": "VAO", "iso": "SB", "status": 1, "name": "Suavanao Airport", "continent": "OC", "type": "airport", "size": "small"}}, {"type": "Feature", "geometry": {"type": "Point", "coordinates": [143.84666, -6.403333]}, "properties": {"iata": "AGK", "iso": "PG", "status": 1, "name": "Kagua Airport", "continent": "OC", "type": "airport", "size": "small"}}, {"type": "Feature", "geometry": {"type": "Point", "coordinates": [157.5861, -8.165]}, "properties": {"iata": "KGE", "iso": "SB", "status": 1, "name": "Kagau Island Airport", "continent": "OC", "type": "airport", "size": "small"}}, {"type": "Feature", "geometry": {"type": "Point", "coordinates": [149.15527, -9.340278]}, "properties": {"iata": "AGL", "iso": "PG", "status": 1, "name": "Wanigela Airport", "continent": "OC", "type": "airport", "size": "small"}}, {"type": "Feature", "geometry": {"type": "Point", "coordinates": [157.03334, -8.2]}, "properties": {"iata": "RIN", "iso": "SB", "status": 1, "name": "Ringi Cove Airport", "continent": "OC", "type": "airport", "size": "small"}}, {"type": "Feature", "geometry": {"type": "Point", "coordinates": [157.63945, -8.165556]}, "properties": {"iata": "RBV", "iso": "SB", "status": 1, "name": "Ramata Airport", "continent": "OC", "type": "airport", "size": "small"}}, {"type": "Feature", "geometry": {"type": "Point", "coordinates": [45.533333, -20.016666]}, "properties": {"iata": "AHY", "iso": "MG", "status": 1, "name": "Ambatolhy Airport", "continent": "AF", "type": "airport", "size": "small"}}, {"type": "Feature", "geometry": {"type": "Point", "coordinates": [144.66667, -5.166667]}, "properties": {"iata": "AIE", "iso": "PG", "status": 1, "name": "Aiome Airport", "continent": "OC", "type": "airport", "size": "small"}}, {"type": "Feature", "geometry": {"type": "Point", "coordinates": [141.26639, -7.348611]}, "properties": {"iata": "AIH", "iso": "PG", "status": 1, "name": "Aiambak Airport", "continent": "OC", "type": "airport", "size": "small"}}, {"type": "Feature", "geometry": {"type": "Point", "coordinates": [168.81667, 7.266667]}, "properties": {"iata": "AIP", "iso": "MH", "status": 1, "name": "Ailinglaplap Airport", "continent": "OC", "type": "airport", "size": "small"}}, {"type": "Feature", "geometry": {"type": "Point", "coordinates": [19.816668, 10.883333]}, "properties": {"iata": "AKM", "iso": "TD", "status": 1, "name": "Zakuoma Airport", "continent": "AF", "type": "airport", "size": "small"}}, {"type": "Feature", "geometry": {"type": "Point", "coordinates": [20.283333, 11.033333]}, "properties": {"iata": "AMC", "iso": "MX", "status": 1, "name": null, "continent": "NA", "type": "airport", "size": "large"}}, {"type": "Feature", "geometry": {"type": "Point", "coordinates": [37.583332, -15.833333]}, "properties": {"iata": "AME", "iso": "MZ", "status": 1, "name": "Alto Molocue Airport", "continent": "AF", "type": "airport", "size": "small"}}, {"type": "Feature", "geometry": {"type": "Point", "coordinates": [141.66667, -4.166667]}, "properties": {"iata": "AMF", "iso": "PG", "status": 1, "name": "AMA Airport", "continent": "OC", "type": "airport", "size": "small"}}, {"type": "Feature", "geometry": {"type": "Point", "coordinates": [141.15, -3.516667]}, "properties": {"iata": "AMU", "iso": "PG", "status": 1, "name": "Amanab Airport", "continent": "OC", "type": "airport", "size": "small"}}, {"type": "Feature", "geometry": {"type": "Point", "coordinates": [45.666668, -17.683332]}, "properties": {"iata": "AMY", "iso": "MG", "status": 1, "name": "Ambatomainty Airport", "continent": "AF", "type": "airport", "size": "small"}}, {"type": "Feature", "geometry": {"type": "Point", "coordinates": [166.91667, -0.533333]}, "properties": {"iata": "INU", "iso": "NR", "status": 1, "name": "Nauru International Airport", "continent": "OC", "type": "airport", "size": "medium"}}, {"type": "Feature", "geometry": {"type": "Point", "coordinates": [17.25, -11.25]}, "properties": {"iata": "ANL", "iso": "AO", "status": 1, "name": "Andulo Airport", "continent": "AF", "type": "airport", "size": "small"}}, {"type": "Feature", "geometry": {"type": "Point", "coordinates": [19.0, -11.5]}, "properties": {"iata": "CNZ", "iso": "AO", "status": 1, "name": "Cangamba Airport", "continent": "AF", "type": "airport", "size": "small"}}, {"type": "Feature", "geometry": {"type": "Point", "coordinates": [20.7, -17.833332]}, "properties": {"iata": "DRC", "iso": "AO", "status": 1, "name": "Dirico Airport", "continent": "AF", "type": "airport", "size": "small"}}, {"type": "Feature", "geometry": {"type": "Point", "coordinates": [22.566668, -12.65]}, "properties": {"iata": "GGC", "iso": "AO", "status": 1, "name": "Lumbala Airport", "continent": "AF", "type": "airport", "size": "small"}}, {"type": "Feature", "geometry": {"type": "Point", "coordinates": [16.083332, -14.7]}, "properties": {"iata": "JMB", "iso": "AO", "status": 1, "name": "Jamba Airport", "continent": "AF", "type": "airport", "size": "small"}}, {"type": "Feature", "geometry": {"type": "Point", "coordinates": [15.450278, -9.766944]}, "properties": {"iata": "KNP", "iso": "AO", "status": 1, "name": "Capanda Airport", "continent": "AF", "type": "airport", "size": "small"}}, {"type": "Feature", "geometry": {"type": "Point", "coordinates": [14.833333, -9.333333]}, "properties": {"iata": "NDF", "iso": "AO", "status": 1, "name": "Ndalatandos Airport", "continent": "AF", "type": "airport", "size": "small"}}, {"type": "Feature", "geometry": {"type": "Point", "coordinates": [144.65, -4.916667]}, "properties": {"iata": "AOB", "iso": "PG", "status": 1, "name": "Annanberg Airport", "continent": "OC", "type": "airport", "size": "small"}}, {"type": "Feature", "geometry": {"type": "Point", "coordinates": [148.13333, -8.983333]}, "properties": {"iata": "APP", "iso": "PG", "status": 1, "name": "Asapa Airport", "continent": "OC", "type": "airport", "size": "small"}}, {"type": "Feature", "geometry": {"type": "Point", "coordinates": [145.0, -8.5]}, "properties": {"iata": "APR", "iso": "PG", "status": 1, "name": "April River Airport", "continent": "OC", "type": "airport", "size": "small"}}, {"type": "Feature", "geometry": {"type": "Point", "coordinates": [-149.11667, 60.966667]}, "properties": {"iata": "AQY", "iso": "US", "status": 1, "name": "Girdwood Airport", "continent": "NA", "type": "airport", "size": "small"}}, {"type": "Feature", "geometry": {"type": "Point", "coordinates": [-60.466667, -35.13333]}, "properties": {"iata": "QRF", "iso": "AR", "status": 1, "name": "Bragado Airport", "continent": "SA", "type": "airport", "size": "small"}}, {"type": "Feature", "geometry": {"type": "Point", "coordinates": [-61.88333, -37.433334]}, "properties": {"iata": "CSZ", "iso": "AR", "status": 1, "name": "Brigadier Hector Ruiz Airport", "continent": "SA", "type": "airport", "size": "small"}}, {"type": "Feature", "geometry": {"type": "Point", "coordinates": [-67.416664, -46.416668]}, "properties": {"iata": "CVI", "iso": "AR", "status": 1, "name": "Caleta Olivia Airport", "continent": "SA", "type": "airport", "size": "small"}}, {"type": "Feature", "geometry": {"type": "Point", "coordinates": [-61.233334, -27.216667]}, "properties": {"iata": "CNT", "iso": "AR", "status": 1, "name": "Charata Airport", "continent": "SA", "type": "airport", "size": "small"}}, {"type": "Feature", "geometry": {"type": "Point", "coordinates": [-63.0, -35.083332]}, "properties": {"iata": "VGS", "iso": "AR", "status": 1, "name": "General Villegas Airport", "continent": "SA", "type": "airport", "size": "small"}}, {"type": "Feature", "geometry": {"type": "Point", "coordinates": [-68.13333, -40.833332]}, "properties": {"iata": "LMD", "iso": "AR", "status": 1, "name": "Los Menucos Airport", "continent": "SA", "type": "airport", "size": "small"}}, {"type": "Feature", "geometry": {"type": "Point", "coordinates": [-66.15, -40.7]}, "properties": {"iata": "VCF", "iso": "AR", "status": 1, "name": "Valcheta Airport", "continent": "SA", "type": "airport", "size": "small"}}, {"type": "Feature", "geometry": {"type": "Point", "coordinates": [-65.416664, -33.63333]}, "properties": {"iata": "VME", "iso": "AR", "status": 1, "name": "Villa Mercedes Airport", "continent": "SA", "type": "airport", "size": "small"}}, {"type": "Feature", "geometry": {"type": "Point", "coordinates": [-62.979782, -40.782757]}, "properties": {"iata": "CPG", "iso": "AR", "status": 1, "name": "Carmen De Patagones Airport", "continent": "SA", "type": "airport", "size": "small"}}, {"type": "Feature", "geometry": {"type": "Point", "coordinates": [-60.666668, -26.833332]}, "properties": {"iata": "PRQ", "iso": "AR", "status": 1, "name": "Termal Airport", "continent": "SA", "type": "airport", "size": "small"}}, {"type": "Feature", "geometry": {"type": "Point", "coordinates": [149.5, -9.8]}, "properties": {"iata": "ARP", "iso": "PG", "status": 1, "name": "Aragip Airport", "continent": "OC", "type": "airport", "size": "small"}}, {"type": "Feature", "geometry": {"type": "Point", "coordinates": [-169.45, -14.25]}, "properties": {"iata": "TAV", "iso": "AS", "status": 1, "name": "Tau Airport", "continent": "OC", "type": "airport", "size": "small"}}, {"type": "Feature", "geometry": {"type": "Point", "coordinates": [150.36667, -5.866667]}, "properties": {"iata": "ASZ", "iso": "PG", "status": 1, "name": "Asirim Airport", "continent": "OC", "type": "airport", "size": "small"}}, {"type": "Feature", "geometry": {"type": "Point", "coordinates": [142.28334, -3.166667]}, "properties": {"iata": "ATP", "iso": "PG", "status": 1, "name": "Aitape Airport", "continent": "OC", "type": "airport", "size": "small"}}, {"type": "Feature", "geometry": {"type": "Point", "coordinates": [142.15, -12.15]}, "properties": {"iata": "AGW", "iso": "AU", "status": 1, "name": "Agnew Airport", "continent": "OC", "type": "airport", "size": "small"}}, {"type": "Feature", "geometry": {"type": "Point", "coordinates": [135.95, -19.3]}, "properties": {"iata": "AYD", "iso": "AU", "status": 1, "name": "Alroy Downs Airport", "continent": "OC", "type": "airport", "size": "small"}}, {"type": "Feature", "geometry": {"type": "Point", "coordinates": [144.16667, -17.4]}, "properties": {"iata": "BCK", "iso": "AU", "status": 1, "name": "Bolwarra Airport", "continent": "OC", "type": "airport", "size": "small"}}, {"type": "Feature", "geometry": {"type": "Point", "coordinates": [145.33333, -15.9]}, "properties": {"iata": "BFC", "iso": "AU", "status": 1, "name": "Bloomfield Airport", "continent": "OC", "type": "airport", "size": "small"}}, {"type": "Feature", "geometry": {"type": "Point", "coordinates": [143.21666, -12.65]}, "properties": {"iata": "BVW", "iso": "AU", "status": 1, "name": "Batavia Downs Airport", "continent": "OC", "type": "airport", "size": "small"}}, {"type": "Feature", "geometry": {"type": "Point", "coordinates": [136.23334, -13.2]}, "properties": {"iata": "BYX", "iso": "AU", "status": 1, "name": "Baniyala Airport", "continent": "OC", "type": "airport", "size": "small"}}, {"type": "Feature", "geometry": {"type": "Point", "coordinates": [130.93333, -15.55]}, "properties": {"iata": "COB", "iso": "AU", "status": 1, "name": "Coolibah Airport", "continent": "OC", "type": "airport", "size": "small"}}, {"type": "Feature", "geometry": {"type": "Point", "coordinates": [147.5, -18.2]}, "properties": {"iata": "CQP", "iso": "AU", "status": 1, "name": "Cape Flattery Airport", "continent": "OC", "type": "airport", "size": "small"}}, {"type": "Feature", "geometry": {"type": "Point", "coordinates": [132.3, -31.9]}, "properties": {"iata": "CRJ", "iso": "AU", "status": 1, "name": "Coorabie Airport", "continent": "OC", "type": "airport", "size": "small"}}, {"type": "Feature", "geometry": {"type": "Point", "coordinates": [128.61667, -15.466667]}, "properties": {"iata": "CRY", "iso": "AU", "status": 1, "name": "Carlton Hill Airport", "continent": "OC", "type": "airport", "size": "small"}}, {"type": "Feature", "geometry": {"type": "Point", "coordinates": [135.91667, -17.966667]}, "properties": {"iata": "CSD", "iso": "AU", "status": 1, "name": "Cresswell Downs Airport", "continent": "OC", "type": "airport", "size": "small"}}, {"type": "Feature", "geometry": {"type": "Point", "coordinates": [131.0, -17.583332]}, "properties": {"iata": "CTR", "iso": "AU", "status": 1, "name": "Cattle Creek Airport", "continent": "OC", "type": "airport", "size": "small"}}, {"type": "Feature", "geometry": {"type": "Point", "coordinates": [139.16667, -26.75]}, "properties": {"iata": "DYM", "iso": "AU", "status": 1, "name": "Diamantina Lakes Airport", "continent": "OC", "type": "airport", "size": "small"}}, {"type": "Feature", "geometry": {"type": "Point", "coordinates": [133.2, -25.25]}, "properties": {"iata": "EDD", "iso": "AU", "status": 1, "name": "Erldunda Airport", "continent": "OC", "type": "airport", "size": "small"}}, {"type": "Feature", "geometry": {"type": "Point", "coordinates": [135.55, -21.15]}, "properties": {"iata": "EKD", "iso": "AU", "status": 1, "name": "Elkedra Airport", "continent": "OC", "type": "airport", "size": "small"}}, {"type": "Feature", "geometry": {"type": "Point", "coordinates": [140.58333, -19.720833]}, "properties": {"iata": "HAT", "iso": "AU", "status": 1, "name": "Heathlands Airport", "continent": "OC", "type": "airport", "size": "small"}}, {"type": "Feature", "geometry": {"type": "Point", "coordinates": [143.15, -16.416668]}, "properties": {"iata": "HIG", "iso": "AU", "status": 1, "name": "Highbury Airport", "continent": "OC", "type": "airport", "size": "small"}}, {"type": "Feature", "geometry": {"type": "Point", "coordinates": [145.2, -15.683333]}, "properties": {"iata": "HLV", "iso": "AU", "status": 1, "name": "Helenvale Airport", "continent": "OC", "type": "airport", "size": "small"}}, {"type": "Feature", "geometry": {"type": "Point", "coordinates": [124.35, -17.333332]}, "properties": {"iata": "KBD", "iso": "AU", "status": 1, "name": "Kimberley Downs Airport", "continent": "OC", "type": "airport", "size": "small"}}, {"type": "Feature", "geometry": {"type": "Point", "coordinates": [133.03334, -25.833332]}, "properties": {"iata": "KGR", "iso": "AU", "status": 1, "name": "Kulgera Airport", "continent": "OC", "type": "airport", "size": "small"}}, {"type": "Feature", "geometry": {"type": "Point", "coordinates": [142.41667, -15.966667]}, "properties": {"iata": "KOH", "iso": "AU", "status": 1, "name": "Koolatah Airport", "continent": "OC", "type": "airport", "size": "small"}}, {"type": "Feature", "geometry": {"type": "Point", "coordinates": [120.075, -27.277779]}, "properties": {"iata": "KYF", "iso": "AU", "status": 1, "name": "Yeelirrie Airport", "continent": "OC", "type": "airport", "size": "small"}}, {"type": "Feature", "geometry": {"type": "Point", "coordinates": [129.8, -17.2]}, "properties": {"iata": "LIB", "iso": "AU", "status": 1, "name": "Limbunya Airport", "continent": "OC", "type": "airport", "size": "small"}}, {"type": "Feature", "geometry": {"type": "Point", "coordinates": [135.21666, -22.45]}, "properties": {"iata": "MNW", "iso": "AU", "status": 1, "name": "Macdonald Downs Airport", "continent": "OC", "type": "airport", "size": "small"}}, {"type": "Feature", "geometry": {"type": "Point", "coordinates": [141.05, -31.133333]}, "properties": {"iata": "MUP", "iso": "AU", "status": 1, "name": "Mulga Park Airport", "continent": "OC", "type": "airport", "size": "small"}}, {"type": "Feature", "geometry": {"type": "Point", "coordinates": [141.51666, -25.783333]}, "properties": {"iata": "MWY", "iso": "AU", "status": 1, "name": "Miranda Downs Airport", "continent": "OC", "type": "airport", "size": "small"}}, {"type": "Feature", "geometry": {"type": "Point", "coordinates": [124.26667, -18.116667]}, "properties": {"iata": "MYO", "iso": "AU", "status": 1, "name": "Camballin Airport", "continent": "OC", "type": "airport", "size": "small"}}, {"type": "Feature", "geometry": {"type": "Point", "coordinates": [124.85, -18.55]}, "properties": {"iata": "NKB", "iso": "AU", "status": 1, "name": "Noonkanbah Airport", "continent": "OC", "type": "airport", "size": "small"}}, {"type": "Feature", "geometry": {"type": "Point", "coordinates": [153.16667, -25.25]}, "properties": {"iata": "OKB", "iso": "AU", "status": 1, "name": "Orchid Beach Airport", "continent": "OC", "type": "airport", "size": "small"}}, {"type": "Feature", "geometry": {"type": "Point", "coordinates": [130.1, -14.15]}, "properties": {"iata": "PEP", "iso": "AU", "status": 1, "name": "Peppimenarti Airport", "continent": "OC", "type": "airport", "size": "small"}}, {"type": "Feature", "geometry": {"type": "Point", "coordinates": [135.16667, -18.95]}, "properties": {"iata": "RDA", "iso": "AU", "status": 1, "name": "Rockhampton Downs Airport", "continent": "OC", "type": "airport", "size": "small"}}, {"type": "Feature", "geometry": {"type": "Point", "coordinates": [128.13333, -19.2]}, "properties": {"iata": "SSK", "iso": "AU", "status": 1, "name": "Sturt Creek Airport", "continent": "OC", "type": "airport", "size": "small"}}, {"type": "Feature", "geometry": {"type": "Point", "coordinates": [119.36667, -21.516666]}, "properties": {"iata": "SWB", "iso": "AU", "status": 1, "name": "Shaw River Airport", "continent": "OC", "type": "airport", "size": "small"}}, {"type": "Feature", "geometry": {"type": "Point", "coordinates": [117.666664, -22.75]}, "properties": {"iata": "TPR", "iso": "AU", "status": 1, "name": "Tom Price Airport", "continent": "OC", "type": "airport", "size": "small"}}, {"type": "Feature", "geometry": {"type": "Point", "coordinates": [143.75, -17.366667]}, "properties": {"iata": "TWP", "iso": "AU", "status": 1, "name": "Torwood Airport", "continent": "OC", "type": "airport", "size": "small"}}, {"type": "Feature", "geometry": {"type": "Point", "coordinates": [120.71667, -20.866667]}, "properties": {"iata": "WRW", "iso": "AU", "status": 1, "name": "Warrawagine Airport", "continent": "OC", "type": "airport", "size": "small"}}, {"type": "Feature", "geometry": {"type": "Point", "coordinates": [148.75278, -20.502777]}, "properties": {"iata": "WSY", "iso": "AU", "status": 1, "name": "Whitsunday Airstrip", "continent": "OC", "type": "airport", "size": "small"}}, {"type": "Feature", "geometry": {"type": "Point", "coordinates": [127.583336, -17.866667]}, "properties": {"iata": "ZVG", "iso": "AU", "status": 1, "name": "Springvale Airport", "continent": "OC", "type": "airport", "size": "small"}}, {"type": "Feature", "geometry": {"type": "Point", "coordinates": [143.075, -1.458333]}, "properties": {"iata": "AUI", "iso": "PG", "status": 1, "name": "Aua Island Airport", "continent": "OC", "type": "airport", "size": "small"}}, {"type": "Feature", "geometry": {"type": "Point", "coordinates": [142.85, -4.25]}, "properties": {"iata": "AUJ", "iso": "PG", "status": 1, "name": "Ambunti Airport", "continent": "OC", "type": "airport", "size": "small"}}, {"type": "Feature", "geometry": {"type": "Point", "coordinates": [149.58333, -9.983333]}, "properties": {"iata": "AUP", "iso": "PG", "status": 1, "name": "Agaun Airport", "continent": "OC", "type": "airport", "size": "small"}}, {"type": "Feature", "geometry": {"type": "Point", "coordinates": [148.43333, -5.716667]}, "properties": {"iata": "AUV", "iso": "PG", "status": 1, "name": "Aumo Airport", "continent": "OC", "type": "airport", "size": "small"}}, {"type": "Feature", "geometry": {"type": "Point", "coordinates": [154.67288, -5.422443]}, "properties": {"iata": "BUA", "iso": "PG", "status": 1, "name": "Buka Airport", "continent": "OC", "type": "airport", "size": "medium"}}, {"type": "Feature", "geometry": {"type": "Point", "coordinates": [144.97444, -5.993889]}, "properties": {"iata": "CMU", "iso": "PG", "status": 1, "name": "Chimbu Airport", "continent": "OC", "type": "airport", "size": "medium"}}, {"type": "Feature", "geometry": {"type": "Point", "coordinates": [143.20605, -9.08351]}, "properties": {"iata": "DAU", "iso": "PG", "status": 1, "name": "Daru Airport", "continent": "OC", "type": "airport", "size": "medium"}}, {"type": "Feature", "geometry": {"type": "Point", "coordinates": [145.39293, -6.075244]}, "properties": {"iata": "GKA", "iso": "PG", "status": 1, "name": "Goroka Airport", "continent": "OC", "type": "airport", "size": "medium"}}, {"type": "Feature", "geometry": {"type": "Point", "coordinates": [150.33861, -10.310833]}, "properties": {"iata": "GUR", "iso": "PG", "status": 1, "name": "Gurney Airport", "continent": "OC", "type": "airport", "size": "medium"}}, {"type": "Feature", "geometry": {"type": "Point", "coordinates": [148.30873, -8.807474]}, "properties": {"iata": "PNP", "iso": "PG", "status": 1, "name": "Girua Airport", "continent": "OC", "type": "airport", "size": "medium"}}, {"type": "Feature", "geometry": {"type": "Point", "coordinates": [150.403, -5.456876]}, "properties": {"iata": "HKN", "iso": "PG", "status": 1, "name": "Kimbe Airport", "continent": "OC", "type": "airport", "size": "medium"}}, {"type": "Feature", "geometry": {"type": "Point", "coordinates": [151.025, -8.363889]}, "properties": {"iata": "LSA", "iso": "PG", "status": 1, "name": "Losuia Airport", "continent": "OC", "type": "airport", "size": "small"}}, {"type": "Feature", "geometry": {"type": "Point", "coordinates": [141.28601, -6.125552]}, "properties": {"iata": "UNG", "iso": "PG", "status": 1, "name": "Kiunga Airport", "continent": "OC", "type": "airport", "size": "small"}}, {"type": "Feature", "geometry": {"type": "Point", "coordinates": [144.26666, -7.483333]}, "properties": {"iata": "KRI", "iso": "PG", "status": 1, "name": "Kikori Airport", "continent": "OC", "type": "airport", "size": "small"}}, {"type": "Feature", "geometry": {"type": "Point", "coordinates": [145.77155, -7.961702]}, "properties": {"iata": "KMA", "iso": "PG", "status": 1, "name": "Kerema Airport", "continent": "OC", "type": "airport", "size": "medium"}}, {"type": "Feature", "geometry": {"type": "Point", "coordinates": [150.80653, -2.58075]}, "properties": {"iata": "KVG", "iso": "PG", "status": 1, "name": "Kavieng Airport", "continent": "OC", "type": "airport", "size": "medium"}}, {"type": "Feature", "geometry": {"type": "Point", "coordinates": [152.6272, -3.043223]}, "properties": {"iata": "LNV", "iso": "PG", "status": 1, "name": "Londolovit Airport", "continent": "OC", "type": "airport", "size": "small"}}, {"type": "Feature", "geometry": {"type": "Point", "coordinates": [145.78784, -5.210852]}, "properties": {"iata": "MAG", "iso": "PG", "status": 1, "name": "Madang Airport", "continent": "OC", "type": "airport", "size": "medium"}}, {"type": "Feature", "geometry": {"type": "Point", "coordinates": [144.29738, -5.828767]}, "properties": {"iata": "HGU", "iso": "PG", "status": 1, "name": "Mount Hagen Kagamuga Airport", "continent": "OC", "type": "airport", "size": "medium"}}, {"type": "Feature", "geometry": {"type": "Point", "coordinates": [143.65, -6.158611]}, "properties": {"iata": "MDU", "iso": "PG", "status": 1, "name": "Mendi Airport", "continent": "OC", "type": "airport", "size": "medium"}}, {"type": "Feature", "geometry": {"type": "Point", "coordinates": [147.42444, -2.056667]}, "properties": {"iata": "MAS", "iso": "PG", "status": 1, "name": "Momote Airport", "continent": "OC", "type": "airport", "size": "medium"}}, {"type": "Feature", "geometry": {"type": "Point", "coordinates": [143.25055, -6.3525]}, "properties": {"iata": "MXH", "iso": "PG", "status": 1, "name": "Moro Airport", "continent": "OC", "type": "airport", "size": "small"}}, {"type": "Feature", "geometry": {"type": "Point", "coordinates": [152.84166, -10.5]}, "properties": {"iata": "MIS", "iso": "PG", "status": 1, "name": "Misima Island Airport", "continent": "OC", "type": "airport", "size": "small"}}, {"type": "Feature", "geometry": {"type": "Point", "coordinates": [146.72757, -6.562694]}, "properties": {"iata": "LAE", "iso": "PG", "status": 1, "name": "Lae Nadzab Airport", "continent": "OC", "type": "airport", "size": "medium"}}, {"type": "Feature", "geometry": {"type": "Point", "coordinates": [147.21446, -9.444308]}, "properties": {"iata": "POM", "iso": "PG", "status": 1, "name": "Port Moresby Jacksons International Airport", "continent": "OC", "type": "airport", "size": "large"}}, {"type": "Feature", "geometry": {"type": "Point", "coordinates": [142.94055, -5.860556]}, "properties": {"iata": "TIZ", "iso": "PG", "status": 1, "name": "Tari Airport", "continent": "OC", "type": "airport", "size": "small"}}, {"type": "Feature", "geometry": {"type": "Point", "coordinates": [141.227, -5.274722]}, "properties": {"iata": "TBG", "iso": "PG", "status": 1, "name": "Tabubil Airport", "continent": "OC", "type": "airport", "size": "small"}}, {"type": "Feature", "geometry": {"type": "Point", "coordinates": [152.36667, -4.333333]}, "properties": {"iata": "RAB", "iso": "PG", "status": 1, "name": "Tokua Airport", "continent": "OC", "type": "airport", "size": "medium"}}, {"type": "Feature", "geometry": {"type": "Point", "coordinates": [145.9, -6.333333]}, "properties": {"iata": "AYU", "iso": "PG", "status": 1, "name": "Aiyura Airport", "continent": "OC", "type": "airport", "size": "small"}}, {"type": "Feature", "geometry": {"type": "Point", "coordinates": [141.30194, -2.694722]}, "properties": {"iata": "VAI", "iso": "PG", "status": 1, "name": "Vanimo Airport", "continent": "OC", "type": "airport", "size": "medium"}}, {"type": "Feature", "geometry": {"type": "Point", "coordinates": [143.91667, -5.616667]}, "properties": {"iata": "WBM", "iso": "PG", "status": 1, "name": "Wapenamanda Airport", "continent": "OC", "type": "airport", "size": "medium"}}, {"type": "Feature", "geometry": {"type": "Point", "coordinates": [143.66916, -3.580034]}, "properties": {"iata": "WWK", "iso": "PG", "status": 1, "name": "Wewak International Airport", "continent": "OC", "type": "airport", "size": "medium"}}, {"type": "Feature", "geometry": {"type": "Point", "coordinates": [148.81667, -10.15]}, "properties": {"iata": "AZB", "iso": "PG", "status": 1, "name": "Amazon Bay Airport", "continent": "OC", "type": "airport", "size": "small"}}, {"type": "Feature", "geometry": {"type": "Point", "coordinates": [35.425, -21.884722]}, "properties": {"iata": "BCW", "iso": "MZ", "status": 1, "name": "Benguera Island Airport", "continent": "AF", "type": "airport", "size": "medium"}}, {"type": "Feature", "geometry": {"type": "Point", "coordinates": [25.55, 41.933334]}, "properties": {"iata": "HKV", "iso": "BG", "status": 1, "name": "Haskovo Airport", "continent": "EU", "type": "airport", "size": "small"}}, {"type": "Feature", "geometry": {"type": "Point", "coordinates": [26.483334, 42.516666]}, "properties": {"iata": "JAM", "iso": "BG", "status": 1, "name": "Bezmer Air Base", "continent": "EU", "type": "airport", "size": "medium"}}, {"type": "Feature", "geometry": {"type": "Point", "coordinates": [-52.75, 68.7]}, "properties": {"iata": "JEG", "iso": "GL", "status": 1, "name": "Aasiaat Airport", "continent": "NA", "type": "airport", "size": "medium"}}, {"type": "Feature", "geometry": {"type": "Point", "coordinates": [-45.316666, 61.166668]}, "properties": {"iata": "UAK", "iso": "GL", "status": 1, "name": "Narsarsuaq Airport", "continent": "NA", "type": "airport", "size": "medium"}}, {"type": "Feature", "geometry": {"type": "Point", "coordinates": [-22.658333, 70.74306]}, "properties": {"iata": "CNP", "iso": "GL", "status": 1, "name": "Neerlerit Inaat Airport", "continent": "NA", "type": "airport", "size": "small"}}, {"type": "Feature", "geometry": {"type": "Point", "coordinates": [-51.725, 64.181946]}, "properties": {"iata": "GOH", "iso": "GL", "status": 1, "name": "Godthaab / Nuuk Airport", "continent": "NA", "type": "airport", "size": "medium"}}, {"type": "Feature", "geometry": {"type": "Point", "coordinates": [-51.05991, 69.24186]}, "properties": {"iata": "JAV", "iso": "GL", "status": 1, "name": "Ilulissat Airport", "continent": "NA", "type": "airport", "size": "small"}}, {"type": "Feature", "geometry": {"type": "Point", "coordinates": [-37.11667, 65.566666]}, "properties": {"iata": "KUS", "iso": "GL", "status": 1, "name": "Kulusuk Airport", "continent": "NA", "type": "airport", "size": "small"}}, {"type": "Feature", "geometry": {"type": "Point", "coordinates": [-52.93537, 65.41244]}, "properties": {"iata": "JSU", "iso": "GL", "status": 1, "name": "Maniitsoq Airport", "continent": "NA", "type": "airport", "size": "small"}}, {"type": "Feature", "geometry": {"type": "Point", "coordinates": [-49.70028, 62.00028]}, "properties": {"iata": "JFR", "iso": "GL", "status": 1, "name": "Paamiut Airport", "continent": "NA", "type": "airport", "size": "small"}}, {"type": "Feature", "geometry": {"type": "Point", "coordinates": [-69.382996, 77.48948]}, "properties": {"iata": "NAQ", "iso": "GL", "status": 1, "name": "Qaanaaq Airport", "continent": "NA", "type": "airport", "size": "small"}}, {"type": "Feature", "geometry": {"type": "Point", "coordinates": [-50.719723, 67.01222]}, "properties": {"iata": "SFJ", "iso": "GL", "status": 1, "name": "Kangerlussuaq Airport", "continent": "NA", "type": "airport", "size": "medium"}}, {"type": "Feature", "geometry": {"type": "Point", "coordinates": [-53.704166, 66.93694]}, "properties": {"iata": "JHS", "iso": "GL", "status": 1, "name": "Sisimiut Airport", "continent": "NA", "type": "airport", "size": "small"}}, {"type": "Feature", "geometry": {"type": "Point", "coordinates": [-68.7, 76.53333]}, "properties": {"iata": "THU", "iso": "GL", "status": 1, "name": "Thule Air Base", "continent": "NA", "type": "airport", "size": "medium"}}, {"type": "Feature", "geometry": {"type": "Point", "coordinates": [-56.130554, 72.790276]}, "properties": {"iata": "JUV", "iso": "GL", "status": 1, "name": "Upernavik Airport", "continent": "NA", "type": "airport", "size": "small"}}, {"type": "Feature", "geometry": {"type": "Point", "coordinates": [-52.702778, 70.73194]}, "properties": {"iata": "JQA", "iso": "GL", "status": 1, "name": "Qaarsut Airport", "continent": "NA", "type": "airport", "size": "small"}}, {"type": "Feature", "geometry": {"type": "Point", "coordinates": [-113.55, 28.95]}, "properties": {"iata": "BHL", "iso": "MX", "status": 1, "name": null, "continent": "NA", "type": "airport", "size": "small"}}, {"type": "Feature", "geometry": {"type": "Point", "coordinates": [-18.075068, 65.654564]}, "properties": {"iata": "AEY", "iso": "IS", "status": 1, "name": "Akureyri Airport", "continent": "EU", "type": "airport", "size": "medium"}}, {"type": "Feature", "geometry": {"type": "Point", "coordinates": [-23.983334, 65.833336]}, "properties": {"iata": "BIU", "iso": "IS", "status": 1, "name": "Bildudalur Airport", "continent": "EU", "type": "airport", "size": "small"}}, {"type": "Feature", "geometry": {"type": "Point", "coordinates": [-14.5, 66.0]}, "properties": {"iata": "BGJ", "iso": "IS", "status": 1, "name": null, "continent": "EU", "type": "airport", "size": "small"}}, {"type": "Feature", "geometry": {"type": "Point", "coordinates": [-14.75, 66.066666]}, "properties": {"iata": "BJD", "iso": "IS", "status": 1, "name": null, "continent": "EU", "type": "airport", "size": "small"}}, {"type": "Feature", "geometry": {"type": "Point", "coordinates": [-20.3, 65.666664]}, "properties": {"iata": "BLO", "iso": "IS", "status": 1, "name": "Hjaltabakki Airport", "continent": "EU", "type": "airport", "size": "small"}}, {"type": "Feature", "geometry": {"type": "Point", "coordinates": [-14.0, 64.76667]}, "properties": {"iata": "BXV", "iso": "IS", "status": 1, "name": null, "continent": "EU", "type": "airport", "size": "small"}}, {"type": "Feature", "geometry": {"type": "Point", "coordinates": [-14.268333, 64.650276]}, "properties": {"iata": "DJU", "iso": "IS", "status": 1, "name": null, "continent": "EU", "type": "airport", "size": "small"}}, {"type": "Feature", "geometry": {"type": "Point", "coordinates": [-14.402778, 65.27778]}, "properties": {"iata": "EGS", "iso": "IS", "status": 1, "name": null, "continent": "EU", "type": "airport", "size": "medium"}}, {"type": "Feature", "geometry": {"type": "Point", "coordinates": [-14.016667, 64.95]}, "properties": {"iata": "FAS", "iso": "IS", "status": 1, "name": null, "continent": "EU", "type": "airport", "size": "small"}}, {"type": "Feature", "geometry": {"type": "Point", "coordinates": [-16.65, 63.88333]}, "properties": {"iata": "FAG", "iso": "IS", "status": 1, "name": null, "continent": "EU", "type": "airport", "size": "small"}}, {"type": "Feature", "geometry": {"type": "Point", "coordinates": [-23.166668, 64.96667]}, "properties": {"iata": "GUU", "iso": "IS", "status": 1, "name": null, "continent": "EU", "type": "airport", "size": "small"}}, {"type": "Feature", "geometry": {"type": "Point", "coordinates": [-21.35, 65.98333]}, "properties": {"iata": "GJR", "iso": "IS", "status": 1, "name": null, "continent": "EU", "type": "airport", "size": "small"}}, {"type": "Feature", "geometry": {"type": "Point", "coordinates": [-18.016666, 66.566666]}, "properties": {"iata": "GRY", "iso": "IS", "status": 1, "name": null, "continent": "EU", "type": "airport", "size": "small"}}, {"type": "Feature", "geometry": {"type": "Point", "coordinates": [-22.466667, 65.7]}, "properties": {"iata": "HVK", "iso": "IS", "status": 1, "name": null, "continent": "EU", "type": "airport", "size": "small"}}, {"type": "Feature", "geometry": {"type": "Point", "coordinates": [-15.266667, 64.28333]}, "properties": {"iata": "HFN", "iso": "IS", "status": 1, "name": "Hornafjordur Airport", "continent": "EU", "type": "airport", "size": "medium"}}, {"type": "Feature", "geometry": {"type": "Point", "coordinates": [-23.7, 65.98333]}, "properties": {"iata": "FLI", "iso": "IS", "status": 1, "name": "Holt Airport", "continent": "EU", "type": "airport", "size": "small"}}, {"type": "Feature", "geometry": {"type": "Point", "coordinates": [-17.427778, 65.95528]}, "properties": {"iata": "HZK", "iso": "IS", "status": 1, "name": "Husavik Airport", "continent": "EU", "type": "airport", "size": "medium"}}, {"type": "Feature", "geometry": {"type": "Point", "coordinates": [-21.0, 65.416664]}, "properties": {"iata": "HVM", "iso": "IS", "status": 1, "name": null, "continent": "EU", "type": "airport", "size": "small"}}, {"type": "Feature", "geometry": {"type": "Point", "coordinates": [15.5, 29.5]}, "properties": {"iata": "HLO", "iso": "IS", "status": 1, "name": null, "continent": "EU", "type": "airport", "size": "small"}}, {"type": "Feature", "geometry": {"type": "Point", "coordinates": [-23.132778, 66.05972]}, "properties": {"iata": "IFJ", "iso": "IS", "status": 1, "name": null, "continent": "EU", "type": "airport", "size": "medium"}}, {"type": "Feature", "geometry": {"type": "Point", "coordinates": [-22.624283, 63.997765]}, "properties": {"iata": "KEF", "iso": "IS", "status": 1, "name": "Keflavik International Airport", "continent": "EU", "type": "airport", "size": "large"}}, {"type": "Feature", "geometry": {"type": "Point", "coordinates": [-16.483334, 66.416664]}, "properties": {"iata": "OPA", "iso": "IS", "status": 1, "name": null, "continent": "EU", "type": "airport", "size": "small"}}, {"type": "Feature", "geometry": {"type": "Point", "coordinates": [-19.65, 65.75]}, "properties": {"iata": "SAK", "iso": "IS", "status": 1, "name": null, "continent": "EU", "type": "airport", "size": "small"}}, {"type": "Feature", "geometry": {"type": "Point", "coordinates": [-22.0, 65.166664]}, "properties": {"iata": "NOR", "iso": "IS", "status": 1, "name": null, "continent": "EU", "type": "airport", "size": "small"}}, {"type": "Feature", "geometry": {"type": "Point", "coordinates": [-19.833332, 65.583336]}, "properties": {"iata": "OFJ", "iso": "IS", "status": 1, "name": null, "continent": "EU", "type": "airport", "size": "small"}}, {"type": "Feature", "geometry": {"type": "Point", "coordinates": [-19.008333, 65.03333]}, "properties": {"iata": "PFJ", "iso": "IS", "status": 1, "name": "Patreksfjordur Airport", "continent": "EU", "type": "airport", "size": "medium"}}, {"type": "Feature", "geometry": {"type": "Point", "coordinates": [-21.416668, 65.166664]}, "properties": {"iata": "RHA", "iso": "IS", "status": 1, "name": null, "continent": "EU", "type": "airport", "size": "small"}}, {"type": "Feature", "geometry": {"type": "Point", "coordinates": [-23.983334, 65.0]}, "properties": {"iata": "OLI", "iso": "IS", "status": 1, "name": "Rif Airport", "continent": "EU", "type": "airport", "size": "small"}}, {"type": "Feature", "geometry": {"type": "Point", "coordinates": [-15.016667, 66.416664]}, "properties": {"iata": "RFN", "iso": "IS", "status": 1, "name": null, "continent": "EU", "type": "airport", "size": "small"}}, {"type": "Feature", "geometry": {"type": "Point", "coordinates": [-16.966667, 65.61667]}, "properties": {"iata": "MVA", "iso": "IS", "status": 1, "name": null, "continent": "EU", "type": "airport", "size": "small"}}, {"type": "Feature", "geometry": {"type": "Point", "coordinates": [-18.933332, 66.166664]}, "properties": {"iata": "SIJ", "iso": "IS", "status": 1, "name": "Siglufjordur Airport", "continent": "EU", "type": "airport", "size": "medium"}}, {"type": "Feature", "geometry": {"type": "Point", "coordinates": [-22.8, 65.1]}, "properties": {"iata": "SYK", "iso": "IS", "status": 1, "name": null, "continent": "EU", "type": "airport", "size": "small"}}, {"type": "Feature", "geometry": {"type": "Point", "coordinates": [-23.45, 65.88333]}, "properties": {"iata": "TEY", "iso": "IS", "status": 1, "name": null, "continent": "EU", "type": "airport", "size": "small"}}, {"type": "Feature", "geometry": {"type": "Point", "coordinates": [-15.335653, 66.219734]}, "properties": {"iata": "THO", "iso": "IS", "status": 1, "name": "Thorshofn Airport", "continent": "EU", "type": "airport", "size": "small"}}, {"type": "Feature", "geometry": {"type": "Point", "coordinates": [-20.277779, 63.426388]}, "properties": {"iata": "VEY", "iso": "IS", "status": 1, "name": "Vestmannaeyjar Airport", "continent": "EU", "type": "airport", "size": "medium"}}, {"type": "Feature", "geometry": {"type": "Point", "coordinates": [-14.846748, 65.72167]}, "properties": {"iata": "VPN", "iso": "IS", "status": 1, "name": null, "continent": "EU", "type": "airport", "size": "small"}}, {"type": "Feature", "geometry": {"type": "Point", "coordinates": [21.035557, 42.573612]}, "properties": {"iata": "PRN", "iso": "KS", "status": 1, "name": null, "continent": "EU", "type": "airport", "size": "large"}}, {"type": "Feature", "geometry": {"type": "Point", "coordinates": [-74.01667, 40.183334]}, "properties": {"iata": "BLM", "iso": "MX", "status": 1, "name": "Bahia De Los Angelos South", "continent": "NA", "type": "airport", "size": "small"}}, {"type": "Feature", "geometry": {"type": "Point", "coordinates": [39.833332, -4.5]}, "properties": {"iata": "BMQ", "iso": "KE", "status": 1, "name": "Bamburi Airport", "continent": "AF", "type": "airport", "size": "small"}}, {"type": "Feature", "geometry": {"type": "Point", "coordinates": [-67.55, -14.45]}, "properties": {"iata": "RBQ", "iso": "BO", "status": 1, "name": "Rurenabaque Airport", "continent": "SA", "type": "airport", "size": "small"}}, {"type": "Feature", "geometry": {"type": "Point", "coordinates": [-63.583332, -13.583333]}, "properties": {"iata": "BVL", "iso": "BO", "status": 1, "name": "Baures Airport", "continent": "SA", "type": "airport", "size": "small"}}, {"type": "Feature", "geometry": {"type": "Point", "coordinates": [21.75, -23.983334]}, "properties": {"iata": "HUK", "iso": "BW", "status": 1, "name": "Hukuntsi Airport", "continent": "AF", "type": "airport", "size": "small"}}, {"type": "Feature", "geometry": {"type": "Point", "coordinates": [-88.77904, 17.270498]}, "properties": {"iata": "BCV", "iso": "BZ", "status": 1, "name": "Belmopan Airport", "continent": "NA", "type": "airport", "size": "small"}}, {"type": "Feature", "geometry": {"type": "Point", "coordinates": [-88.4, 16.516666]}, "properties": {"iata": "BGK", "iso": "BZ", "status": 1, "name": "Big Creek Airport", "continent": "NA", "type": "airport", "size": "medium"}}, {"type": "Feature", "geometry": {"type": "Point", "coordinates": [-88.02956, 17.735527]}, "properties": {"iata": "CUK", "iso": "BZ", "status": 1, "name": "Caye Caulker Airport", "continent": "NA", "type": "airport", "size": "medium"}}, {"type": "Feature", "geometry": {"type": "Point", "coordinates": [-88.833336, 17.666668]}, "properties": {"iata": "CYC", "iso": "BZ", "status": 1, "name": "Caye Chapel Airport", "continent": "NA", "type": "airport", "size": "medium"}}, {"type": "Feature", "geometry": {"type": "Point", "coordinates": [-88.410675, 18.382334]}, "properties": {"iata": "CZH", "iso": "BZ", "status": 1, "name": "Corozal Municipal Airport", "continent": "NA", "type": "airport", "size": "medium"}}, {"type": "Feature", "geometry": {"type": "Point", "coordinates": [-88.23039, 16.982765]}, "properties": {"iata": "DGA", "iso": "BZ", "status": 1, "name": "Dangriga Airport", "continent": "NA", "type": "airport", "size": "medium"}}, {"type": "Feature", "geometry": {"type": "Point", "coordinates": [-88.43826, 16.535536]}, "properties": {"iata": "INB", "iso": "BZ", "status": 1, "name": "Independence Airport", "continent": "NA", "type": "airport", "size": "small"}}, {"type": "Feature", "geometry": {"type": "Point", "coordinates": [-88.32056, 16.998611]}, "properties": {"iata": "MDB", "iso": "BZ", "status": 1, "name": "Melinda Airport", "continent": "NA", "type": "airport", "size": "small"}}, {"type": "Feature", "geometry": {"type": "Point", "coordinates": [-88.75, 17.166668]}, "properties": {"iata": "ORZ", "iso": "BZ", "status": 1, "name": "Orange Walk Airport", "continent": "NA", "type": "airport", "size": "small"}}, {"type": "Feature", "geometry": {"type": "Point", "coordinates": [-88.360886, 16.53708]}, "properties": {"iata": "PLJ", "iso": "BZ", "status": 1, "name": "Placencia Airport", "continent": "NA", "type": "airport", "size": "medium"}}, {"type": "Feature", "geometry": {"type": "Point", "coordinates": [-88.816666, 16.1]}, "properties": {"iata": "PND", "iso": "BZ", "status": 1, "name": "Punta Gorda Airport", "continent": "NA", "type": "airport", "size": "medium"}}, {"type": "Feature", "geometry": {"type": "Point", "coordinates": [-88.333336, 18.3]}, "properties": {"iata": "SJX", "iso": "BZ", "status": 1, "name": "Sartaneja Airport", "continent": "NA", "type": "airport", "size": "medium"}}, {"type": "Feature", "geometry": {"type": "Point", "coordinates": [-87.96571, 17.917067]}, "properties": {"iata": "SPR", "iso": "BZ", "status": 1, "name": "San Pedro Airport", "continent": "NA", "type": "airport", "size": "medium"}}, {"type": "Feature", "geometry": {"type": "Point", "coordinates": [-89.03333, 17.183332]}, "properties": {"iata": "SQS", "iso": "BZ", "status": 1, "name": "Matthew Spain Airport", "continent": "NA", "type": "airport", "size": "small"}}, {"type": "Feature", "geometry": {"type": "Point", "coordinates": [-88.45, 18.266666]}, "properties": {"iata": "STU", "iso": "BZ", "status": 1, "name": "Santa Cruz Airport", "continent": "NA", "type": "airport", "size": "small"}}, {"type": "Feature", "geometry": {"type": "Point", "coordinates": [-88.34, 16.7253]}, "properties": {"iata": "SVK", "iso": "BZ", "status": 1, "name": "Silver Creek Airport", "continent": "NA", "type": "airport", "size": "small"}}, {"type": "Feature", "geometry": {"type": "Point", "coordinates": [-88.191666, 17.51639]}, "properties": {"iata": "TZA", "iso": "BZ", "status": 1, "name": "Belize City Municipal Airport", "continent": "NA", "type": "airport", "size": "medium"}}, {"type": "Feature", "geometry": {"type": "Point", "coordinates": [35.49167, -21.534721]}, "properties": {"iata": "BZB", "iso": "MZ", "status": 1, "name": "Bazaruto Island Airport", "continent": "AF", "type": "airport", "size": "medium"}}, {"type": "Feature", "geometry": {"type": "Point", "coordinates": [-117.6, 49.066666]}, "properties": {"iata": "YZZ", "iso": "CA", "status": 1, "name": "Trail Airport", "continent": "NA", "type": "airport", "size": "small"}}, {"type": "Feature", "geometry": {"type": "Point", "coordinates": [-125.3, 52.45]}, "properties": {"iata": "YAA", "iso": "CA", "status": 1, "name": "Anahim Lake Airport", "continent": "NA", "type": "airport", "size": "small"}}, {"type": "Feature", "geometry": {"type": "Point", "coordinates": [-111.41889, 57.22389]}, "properties": {"iata": "JHL", "iso": "CA", "status": 1, "name": "Fort MacKay/Albian Aerodrome", "continent": "NA", "type": "airport", "size": "small"}}, {"type": "Feature", "geometry": {"type": "Point", "coordinates": [-56.01282, 52.335438]}, "properties": {"iata": "YWM", "iso": "CA", "status": 1, "name": "Williams Harbour Airport", "continent": "NA", "type": "airport", "size": "small"}}, {"type": "Feature", "geometry": {"type": "Point", "coordinates": [-55.683334, 52.36667]}, "properties": {"iata": "YFX", "iso": "CA", "status": 1, "name": "St. Lewis (Fox Harbour) Airport", "continent": "NA", "type": "airport", "size": "small"}}, {"type": "Feature", "geometry": {"type": "Point", "coordinates": [-56.3, 52.533333]}, "properties": {"iata": "YHA", "iso": "CA", "status": 1, "name": "Port Hope Simpson Airport", "continent": "NA", "type": "airport", "size": "small"}}, {"type": "Feature", "geometry": {"type": "Point", "coordinates": [-58.416668, 54.333332]}, "properties": {"iata": "YRG", "iso": "CA", "status": 1, "name": "Rigolet Airport", "continent": "NA", "type": "airport", "size": "small"}}, {"type": "Feature", "geometry": {"type": "Point", "coordinates": [-83.03333, 29.133333]}, "properties": {"iata": "CDK", "iso": "US", "status": 1, "name": "George T Lewis Airport", "continent": "NA", "type": "airport", "size": "small"}}, {"type": "Feature", "geometry": {"type": "Point", "coordinates": [-126.09047, 67.03993]}, "properties": {"iata": "YCK", "iso": "CA", "status": 1, "name": "Colville Lake Airport", "continent": "NA", "type": "airport", "size": "small"}}, {"type": "Feature", "geometry": {"type": "Point", "coordinates": [-117.24318, 63.132942]}, "properties": {"iata": "YLE", "iso": "CA", "status": 1, "name": null, "continent": "NA", "type": "airport", "size": "small"}}, {"type": "Feature", "geometry": {"type": "Point", "coordinates": [-119.712776, 66.70306]}, "properties": {"iata": "DAS", "iso": "CA", "status": 1, "name": "Great Bear Lake Airport", "continent": "NA", "type": "airport", "size": "small"}}, {"type": "Feature", "geometry": {"type": "Point", "coordinates": [15.0, -1.466667]}, "properties": {"iata": "OKG", "iso": "CG", "status": 1, "name": "Okoyo Airport", "continent": "AF", "type": "airport", "size": "small"}}, {"type": "Feature", "geometry": {"type": "Point", "coordinates": [-88.5475, 52.71528]}, "properties": {"iata": "SUR", "iso": "CA", "status": 1, "name": "Summer Beaver Airport", "continent": "NA", "type": "airport", "size": "small"}}, {"type": "Feature", "geometry": {"type": "Point", "coordinates": [-89.565, 53.251945]}, "properties": {"iata": "YAX", "iso": "CA", "status": 1, "name": "Wapekeka Airport", "continent": "NA", "type": "airport", "size": "small"}}, {"type": "Feature", "geometry": {"type": "Point", "coordinates": [-89.166664, 52.916668]}, "properties": {"iata": "WNN", "iso": "CA", "status": 1, "name": "Wunnumin Lake Airport", "continent": "NA", "type": "airport", "size": "small"}}, {"type": "Feature", "geometry": {"type": "Point", "coordinates": [-92.416664, 52.5]}, "properties": {"iata": "YNO", "iso": "CA", "status": 1, "name": "North Spirit Lake Airport", "continent": "NA", "type": "airport", "size": "small"}}, {"type": "Feature", "geometry": {"type": "Point", "coordinates": [122.42059, 52.92113]}, "properties": {"iata": "OHE", "iso": "CN", "status": 1, "name": "Gu-Lian Airport", "continent": "AS", "type": "airport", "size": "medium"}}, {"type": "Feature", "geometry": {"type": "Point", "coordinates": [113.28333, 23.133333]}, "properties": {"iata": "FUO", "iso": "CN", "status": 1, "name": "Foshan Shadi Airport", "continent": "AS", "type": "airport", "size": "medium"}}, {"type": "Feature", "geometry": {"type": "Point", "coordinates": [114.36667, 23.083332]}, "properties": {"iata": "HUZ", "iso": "CN", "status": 1, "name": "Huizhou Airport", "continent": "AS", "type": "airport", "size": "medium"}}, {"type": "Feature", "geometry": {"type": "Point", "coordinates": [114.7375, 26.899721]}, "properties": {"iata": "JGS", "iso": "CN", "status": 1, "name": "Jinggangshan Airport", "continent": "AS", "type": "airport", "size": "medium"}}, {"type": "Feature", "geometry": {"type": "Point", "coordinates": [106.96777, 23.71947]}, "properties": {"iata": "AEB", "iso": "CN", "status": 1, "name": "Tian Yang Air Base", "continent": "AS", "type": "airport", "size": "medium"}}, {"type": "Feature", "geometry": {"type": "Point", "coordinates": [88.08444, 47.750362]}, "properties": {"iata": "AAT", "iso": "CN", "status": 1, "name": "Altay Air Base", "continent": "AS", "type": "airport", "size": "medium"}}, {"type": "Feature", "geometry": {"type": "Point", "coordinates": [100.660835, 38.8075]}, "properties": {"iata": "YZY", "iso": "CN", "status": 1, "name": "Zhangye Southeast Air Base", "continent": "AS", "type": "airport", "size": "medium"}}, {"type": "Feature", "geometry": {"type": "Point", "coordinates": [124.28081, 40.032368]}, "properties": {"iata": "DDG", "iso": "CN", "status": 1, "name": "Dandong Airport", "continent": "AS", "type": "airport", "size": "medium"}}, {"type": "Feature", "geometry": {"type": "Point", "coordinates": [120.9756, 32.07292]}, "properties": {"iata": "NTG", "iso": "CN", "status": 1, "name": "Nantong Airport", "continent": "AS", "type": "airport", "size": "small"}}, {"type": "Feature", "geometry": {"type": "Point", "coordinates": [-90.98333, 53.95]}, "properties": {"iata": "XBE", "iso": "CA", "status": 1, "name": "Bearskin Lake Airport", "continent": "NA", "type": "airport", "size": "small"}}, {"type": "Feature", "geometry": {"type": "Point", "coordinates": [-89.85, 53.01389]}, "properties": {"iata": "KIF", "iso": "CA", "status": 1, "name": "Kingfisher Lake Airport", "continent": "NA", "type": "airport", "size": "small"}}, {"type": "Feature", "geometry": {"type": "Point", "coordinates": [-85.916664, 51.666668]}, "properties": {"iata": "YOG", "iso": "CA", "status": 1, "name": "Ogoki Post Airport", "continent": "NA", "type": "airport", "size": "small"}}, {"type": "Feature", "geometry": {"type": "Point", "coordinates": [-73.05194, 4.068889]}, "properties": {"iata": "API", "iso": "CO", "status": 1, "name": "Apiay Airport", "continent": "SA", "type": "airport", "size": "small"}}, {"type": "Feature", "geometry": {"type": "Point", "coordinates": [-76.71766, 7.817678]}, "properties": {"iata": "APO", "iso": "CO", "status": 1, "name": null, "continent": "SA", "type": "airport", "size": "small"}}, {"type": "Feature", "geometry": {"type": "Point", "coordinates": [-71.43166, 7.033056]}, "properties": {"iata": "ARQ", "iso": "CO", "status": 1, "name": "El Troncal Airport", "continent": "SA", "type": "airport", "size": "small"}}, {"type": "Feature", "geometry": {"type": "Point", "coordinates": [-73.01667, -0.733333]}, "properties": {"iata": "LCR", "iso": "CO", "status": 1, "name": "La Chorrera Airport", "continent": "SA", "type": "airport", "size": "small"}}, {"type": "Feature", "geometry": {"type": "Point", "coordinates": [-73.0, 7.666667]}, "properties": {"iata": "SNT", "iso": "CO", "status": 1, "name": "Las Cruces Airport", "continent": "SA", "type": "airport", "size": "small"}}, {"type": "Feature", "geometry": {"type": "Point", "coordinates": [-69.76667, -2.933333]}, "properties": {"iata": "TCD", "iso": "CO", "status": 1, "name": null, "continent": "SA", "type": "airport", "size": "small"}}, {"type": "Feature", "geometry": {"type": "Point", "coordinates": [-94.3, 52.083332]}, "properties": {"iata": "YHP", "iso": "CA", "status": 1, "name": "Poplar Hill Airport", "continent": "NA", "type": "airport", "size": "small"}}, {"type": "Feature", "geometry": {"type": "Point", "coordinates": [-78.924065, 53.806824]}, "properties": {"iata": "YKU", "iso": "CA", "status": 1, "name": "Chisasibi Airport", "continent": "NA", "type": "airport", "size": "small"}}, {"type": "Feature", "geometry": {"type": "Point", "coordinates": [-59.333332, 50.716667]}, "properties": {"iata": "ZTB", "iso": "CA", "status": 1, "name": null, "continent": "NA", "type": "airport", "size": "small"}}, {"type": "Feature", "geometry": {"type": "Point", "coordinates": [-73.31694, 61.662777]}, "properties": {"iata": "YAU", "iso": "CA", "status": 1, "name": "Donaldson Airport", "continent": "NA", "type": "airport", "size": "small"}}, {"type": "Feature", "geometry": {"type": "Point", "coordinates": [-58.97601, 50.828056]}, "properties": {"iata": "ZLT", "iso": "CA", "status": 1, "name": null, "continent": "NA", "type": "airport", "size": "small"}}, {"type": "Feature", "geometry": {"type": "Point", "coordinates": [-75.666664, 20.75]}, "properties": {"iata": "PST", "iso": "CU", "status": 1, "name": "Preston Airport", "continent": "NA", "type": "airport", "size": "small"}}, {"type": "Feature", "geometry": {"type": "Point", "coordinates": [33.716667, 35.233334]}, "properties": {"iata": "GEC", "iso": "CY", "status": 1, "name": null, "continent": "AS", "type": "airport", "size": "medium"}}, {"type": "Feature", "geometry": {"type": "Point", "coordinates": [-91.816666, 51.716667]}, "properties": {"iata": "YAC", "iso": "CA", "status": 1, "name": "Cat Lake Airport", "continent": "NA", "type": "airport", "size": "medium"}}, {"type": "Feature", "geometry": {"type": "Point", "coordinates": [-93.44722, 48.65278]}, "properties": {"iata": "YAG", "iso": "CA", "status": 1, "name": "Fort Frances Municipal Airport", "continent": "NA", "type": "airport", "size": "medium"}}, {"type": "Feature", "geometry": {"type": "Point", "coordinates": [-73.65, 53.75]}, "properties": {"iata": "YAH", "iso": "CA", "status": 1, "name": "La Grande-4 Airport", "continent": "NA", "type": "airport", "size": "medium"}}, {"type": "Feature", "geometry": {"type": "Point", "coordinates": [-126.916664, 50.583332]}, "properties": {"iata": "YAL", "iso": "CA", "status": 1, "name": "Alert Bay Airport", "continent": "NA", "type": "airport", "size": "medium"}}, {"type": "Feature", "geometry": {"type": "Point", "coordinates": [-84.49995, 46.485302]}, "properties": {"iata": "YAM", "iso": "CA", "status": 1, "name": "Sault Ste Marie Airport", "continent": "NA", "type": "airport", "size": "medium"}}, {"type": "Feature", "geometry": {"type": "Point", "coordinates": [-88.64667, 53.52]}, "properties": {"iata": "XKS", "iso": "CA", "status": 1, "name": "Kasabonika Airport", "continent": "NA", "type": "airport", "size": "medium"}}, {"type": "Feature", "geometry": {"type": "Point", "coordinates": [-70.0046, 60.023083]}, "properties": {"iata": "YKG", "iso": "CA", "status": 1, "name": "Kangirsuk Airport", "continent": "NA", "type": "airport", "size": "medium"}}, {"type": "Feature", "geometry": {"type": "Point", "coordinates": [-82.4, 52.941666]}, "properties": {"iata": "YAT", "iso": "CA", "status": 1, "name": "Attawapiskat Airport", "continent": "NA", "type": "airport", "size": "medium"}}, {"type": "Feature", "geometry": {"type": "Point", "coordinates": [-123.3, 48.86667]}, "properties": {"iata": "YAV", "iso": "CA", "status": 1, "name": "Winnipeg / St. Andrews Airport", "continent": "NA", "type": "airport", "size": "medium"}}, {"type": "Feature", "geometry": {"type": "Point", "coordinates": [-89.565, 53.251945]}, "properties": {"iata": "YAX", "iso": "CA", "status": 1, "name": "Lac Du Bonnet Airport", "continent": "NA", "type": "airport", "size": "medium"}}, {"type": "Feature", "geometry": {"type": "Point", "coordinates": [-55.583332, 51.36667]}, "properties": {"iata": "YAY", "iso": "CA", "status": 1, "name": "St Anthony Airport", "continent": "NA", "type": "airport", "size": "medium"}}, {"type": "Feature", "geometry": {"type": "Point", "coordinates": [-125.77639, 49.076942]}, "properties": {"iata": "YAZ", "iso": "CA", "status": 1, "name": "Tofino / Long Beach Airport", "continent": "NA", "type": "airport", "size": "medium"}}, {"type": "Feature", "geometry": {"type": "Point", "coordinates": [-89.85, 68.88333]}, "properties": {"iata": "YBB", "iso": "CA", "status": 1, "name": "Kugaaruk Airport", "continent": "NA", "type": "airport", "size": "medium"}}, {"type": "Feature", "geometry": {"type": "Point", "coordinates": [-68.26667, 49.2]}, "properties": {"iata": "YBC", "iso": "CA", "status": 1, "name": "Baie Comeau Airport", "continent": "NA", "type": "airport", "size": "medium"}}, {"type": "Feature", "geometry": {"type": "Point", "coordinates": [-126.666664, 52.333332]}, "properties": {"iata": "QBC", "iso": "CA", "status": 1, "name": "Bella Coola Airport", "continent": "NA", "type": "airport", "size": "medium"}}, {"type": "Feature", "geometry": {"type": "Point", "coordinates": [-108.48333, 59.566666]}, "properties": {"iata": "YBE", "iso": "CA", "status": 1, "name": "Uranium City Airport", "continent": "NA", "type": "airport", "size": "medium"}}, {"type": "Feature", "geometry": {"type": "Point", "coordinates": [-110.73333, 54.266666]}, "properties": {"iata": "YBY", "iso": "CA", "status": 1, "name": "Bonnyville Airport", "continent": "NA", "type": "airport", "size": "medium"}}, {"type": "Feature", "geometry": {"type": "Point", "coordinates": [-70.98861, 48.322224]}, "properties": {"iata": "YBG", "iso": "CA", "status": 1, "name": "CFB Bagotville", "continent": "NA", "type": "airport", "size": "medium"}}, {"type": "Feature", "geometry": {"type": "Point", "coordinates": [-96.083336, 64.3]}, "properties": {"iata": "YBK", "iso": "CA", "status": 1, "name": "Baker Lake Airport", "continent": "NA", "type": "airport", "size": "medium"}}, {"type": "Feature", "geometry": {"type": "Point", "coordinates": [-125.26813, 49.951725]}, "properties": {"iata": "YBL", "iso": "CA", "status": 1, "name": "Campbell River Airport", "continent": "NA", "type": "airport", "size": "medium"}}, {"type": "Feature", "geometry": {"type": "Point", "coordinates": [-98.51344, 58.707954]}, "properties": {"iata": "XTL", "iso": "CA", "status": 1, "name": "Tadoule Lake Airport", "continent": "NA", "type": "airport", "size": "medium"}}, {"type": "Feature", "geometry": {"type": "Point", "coordinates": [-99.94677, 49.908688]}, "properties": {"iata": "YBR", "iso": "CA", "status": 1, "name": "Brandon Municipal Airport", "continent": "NA", "type": "airport", "size": "medium"}}, {"type": "Feature", "geometry": {"type": "Point", "coordinates": [-101.67899, 57.88847]}, "properties": {"iata": "YBT", "iso": "CA", "status": 1, "name": "Brochet Airport", "continent": "NA", "type": "airport", "size": "medium"}}, {"type": "Feature", "geometry": {"type": "Point", "coordinates": [-97.02141, 52.358696]}, "properties": {"iata": "YBV", "iso": "CA", "status": 1, "name": "Berens River Airport", "continent": "NA", "type": "airport", "size": "medium"}}, {"type": "Feature", "geometry": {"type": "Point", "coordinates": [-57.216667, 51.433334]}, "properties": {"iata": "YBX", "iso": "CA", "status": 1, "name": "Lourdes de Blanc Sablon Airport", "continent": "NA", "type": "airport", "size": "medium"}}, {"type": "Feature", "geometry": {"type": "Point", "coordinates": [-57.03828, 53.682606]}, "properties": {"iata": "YRF", "iso": "CA", "status": 1, "name": "Cartwright Airport", "continent": "NA", "type": "airport", "size": "medium"}}, {"type": "Feature", "geometry": {"type": "Point", "coordinates": [-105.13333, 69.1]}, "properties": {"iata": "YCB", "iso": "CA", "status": 1, "name": "Cambridge Bay Airport", "continent": "NA", "type": "airport", "size": "medium"}}, {"type": "Feature", "geometry": {"type": "Point", "coordinates": [-74.566666, 45.1]}, "properties": {"iata": "YCC", "iso": "CA", "status": 1, "name": "Cornwall Regional Airport", "continent": "NA", "type": "airport", "size": "medium"}}, {"type": "Feature", "geometry": {"type": "Point", "coordinates": [-123.86667, 49.05]}, "properties": {"iata": "YCD", "iso": "CA", "status": 1, "name": "Nanaimo Airport", "continent": "NA", "type": "airport", "size": "medium"}}, {"type": "Feature", "geometry": {"type": "Point", "coordinates": [-81.48333, 43.283333]}, "properties": {"iata": "YCE", "iso": "CA", "status": 1, "name": "James T. Field Memorial Aerodrome", "continent": "NA", "type": "airport", "size": "medium"}}, {"type": "Feature", "geometry": {"type": "Point", "coordinates": [-117.632225, 49.295555]}, "properties": {"iata": "YCG", "iso": "CA", "status": 1, "name": "Castlegar/West Kootenay Regional Airport", "continent": "NA", "type": "airport", "size": "medium"}}, {"type": "Feature", "geometry": {"type": "Point", "coordinates": [-65.44744, 47.014008]}, "properties": {"iata": "YCH", "iso": "CA", "status": 1, "name": "Miramichi Airport", "continent": "NA", "type": "airport", "size": "medium"}}, {"type": "Feature", "geometry": {"type": "Point", "coordinates": [-66.32881, 47.99093]}, "properties": {"iata": "YCL", "iso": "CA", "status": 1, "name": "Charlo Airport", "continent": "NA", "type": "airport", "size": "medium"}}, {"type": "Feature", "geometry": {"type": "Point", "coordinates": [-81.01289, 49.106018]}, "properties": {"iata": "YCN", "iso": "CA", "status": 1, "name": "Cochrane Airport", "continent": "NA", "type": "airport", "size": "medium"}}, {"type": "Feature", "geometry": {"type": "Point", "coordinates": [-115.083336, 67.833336]}, "properties": {"iata": "YCO", "iso": "CA", "status": 1, "name": "Kugluktuk Airport", "continent": "NA", "type": "airport", "size": "medium"}}, {"type": "Feature", "geometry": {"type": "Point", "coordinates": [-121.63333, 55.683334]}, "properties": {"iata": "YCQ", "iso": "CA", "status": 1, "name": "Chetwynd Airport", "continent": "NA", "type": "airport", "size": "medium"}}, {"type": "Feature", "geometry": {"type": "Point", "coordinates": [-97.75144, 54.61306]}, "properties": {"iata": "YCR", "iso": "CA", "status": 1, "name": "Cross Lake (Charlie Sinclair Memorial) Airport", "continent": "NA", "type": "airport", "size": "medium"}}, {"type": "Feature", "geometry": {"type": "Point", "coordinates": [-90.71667, 63.333332]}, "properties": {"iata": "YCS", "iso": "CA", "status": 1, "name": "Chesterfield Inlet Airport", "continent": "NA", "type": "airport", "size": "medium"}}, {"type": "Feature", "geometry": {"type": "Point", "coordinates": [-68.5, 70.416664]}, "properties": {"iata": "YCY", "iso": "CA", "status": 1, "name": "Clyde River Airport", "continent": "NA", "type": "airport", "size": "medium"}}, {"type": "Feature", "geometry": {"type": "Point", "coordinates": [-115.87361, 50.331944]}, "properties": {"iata": "YCZ", "iso": "CA", "status": 1, "name": "Fairmont Hot Springs Airport", "continent": "NA", "type": "airport", "size": "small"}}, {"type": "Feature", "geometry": {"type": "Point", "coordinates": [-139.12083, 64.041664]}, "properties": {"iata": "YDA", "iso": "CA", "status": 1, "name": "Dawson City Airport", "continent": "NA", "type": "airport", "size": "medium"}}, {"type": "Feature", "geometry": {"type": "Point", "coordinates": [-139.01666, 61.35]}, "properties": {"iata": "YDB", "iso": "CA", "status": 1, "name": "Burwash Airport", "continent": "NA", "type": "airport", "size": "medium"}}, {"type": "Feature", "geometry": {"type": "Point", "coordinates": [-57.399727, 49.21027]}, "properties": {"iata": "YDF", "iso": "CA", "status": 1, "name": "Deer Lake Airport", "continent": "NA", "type": "airport", "size": "medium"}}, {"type": "Feature", "geometry": {"type": "Point", "coordinates": [138.8216, -17.939201]}, "properties": {"iata": "YDM", "iso": "CA", "status": 1, "name": "Ross River Airport", "continent": "NA", "type": "airport", "size": "medium"}}, {"type": "Feature", "geometry": {"type": "Point", "coordinates": [-100.05, 51.1]}, "properties": {"iata": "YDN", "iso": "CA", "status": 1, "name": "Dauphin Barker Airport", "continent": "NA", "type": "airport", "size": "medium"}}, {"type": "Feature", "geometry": {"type": "Point", "coordinates": [-72.23333, 48.86667]}, "properties": {"iata": "YDO", "iso": "CA", "status": 1, "name": "Dolbeau St Felicien Airport", "continent": "NA", "type": "airport", "size": "medium"}}, {"type": "Feature", "geometry": {"type": "Point", "coordinates": [-61.666668, 56.533333]}, "properties": {"iata": "YDP", "iso": "CA", "status": 1, "name": "Nain Airport", "continent": "NA", "type": "airport", "size": "medium"}}, {"type": "Feature", "geometry": {"type": "Point", "coordinates": [-120.183334, 55.733334]}, "properties": {"iata": "YDQ", "iso": "CA", "status": 1, "name": "Dawson Creek Airport", "continent": "NA", "type": "airport", "size": "medium"}}, {"type": "Feature", "geometry": {"type": "Point", "coordinates": [-113.584045, 53.307377]}, "properties": {"iata": "YEG", "iso": "CA", "status": 1, "name": "Edmonton International Airport", "continent": "NA", "type": "airport", "size": "large"}}, {"type": "Feature", "geometry": {"type": "Point", "coordinates": [-94.05, 61.11667]}, "properties": {"iata": "YEK", "iso": "CA", "status": 1, "name": "Arviat Airport", "continent": "NA", "type": "airport", "size": "medium"}}, {"type": "Feature", "geometry": {"type": "Point", "coordinates": [-82.56306, 46.352222]}, "properties": {"iata": "YEL", "iso": "CA", "status": 1, "name": "Elliot Lake Municipal Airport", "continent": "NA", "type": "airport", "size": "medium"}}, {"type": "Feature", "geometry": {"type": "Point", "coordinates": [-81.858055, 45.842777]}, "properties": {"iata": "YEM", "iso": "CA", "status": 1, "name": "Manitoulin East Municipal Airport", "continent": "NA", "type": "airport", "size": "medium"}}, {"type": "Feature", "geometry": {"type": "Point", "coordinates": [-102.96282, 49.207542]}, "properties": {"iata": "YEN", "iso": "CA", "status": 1, "name": "Estevan Airport", "continent": "NA", "type": "airport", "size": "medium"}}, {"type": "Feature", "geometry": {"type": "Point", "coordinates": [-87.833336, 56.033333]}, "properties": {"iata": "YER", "iso": "CA", "status": 1, "name": "Fort Severn Airport", "continent": "NA", "type": "airport", "size": "medium"}}, {"type": "Feature", "geometry": {"type": "Point", "coordinates": [-116.46667, 53.583332]}, "properties": {"iata": "YET", "iso": "CA", "status": 1, "name": "Edson Airport", "continent": "NA", "type": "airport", "size": "medium"}}, {"type": "Feature", "geometry": {"type": "Point", "coordinates": [-85.933334, 80.0]}, "properties": {"iata": "YEU", "iso": "CA", "status": 1, "name": "Eureka Airport", "continent": "NA", "type": "airport", "size": "small"}}, {"type": "Feature", "geometry": {"type": "Point", "coordinates": [-133.49767, 68.30665]}, "properties": {"iata": "YEV", "iso": "CA", "status": 1, "name": "Inuvik Mike Zubko Airport", "continent": "NA", "type": "airport", "size": "medium"}}, {"type": "Feature", "geometry": {"type": "Point", "coordinates": [-78.25, 48.552223]}, "properties": {"iata": "YEY", "iso": "CA", "status": 1, "name": "Amos Magny Airport", "continent": "NA", "type": "airport", "size": "medium"}}, {"type": "Feature", "geometry": {"type": "Point", "coordinates": [-81.59167, 52.24167]}, "properties": {"iata": "YFA", "iso": "CA", "status": 1, "name": "Fort Albany Airport", "continent": "NA", "type": "airport", "size": "medium"}}, {"type": "Feature", "geometry": {"type": "Point", "coordinates": [-68.53658, 63.75175]}, "properties": {"iata": "YFB", "iso": "CA", "status": 1, "name": "Iqaluit Airport", "continent": "NA", "type": "airport", "size": "medium"}}, {"type": "Feature", "geometry": {"type": "Point", "coordinates": [-66.52978, 45.87316]}, "properties": {"iata": "YFC", "iso": "CA", "status": 1, "name": "Fredericton Airport", "continent": "NA", "type": "airport", "size": "medium"}}, {"type": "Feature", "geometry": {"type": "Point", "coordinates": [-69.066666, 48.75]}, "properties": {"iata": "YFE", "iso": "CA", "status": 1, "name": "Forestville Airport", "continent": "NA", "type": "airport", "size": "medium"}}, {"type": "Feature", "geometry": {"type": "Point", "coordinates": [-87.89796, 51.559345]}, "properties": {"iata": "YFH", "iso": "CA", "status": 1, "name": "Fort Hope Airport", "continent": "NA", "type": "airport", "size": "medium"}}, {"type": "Feature", "geometry": {"type": "Point", "coordinates": [-74.75528, 46.515556]}, "properties": {"iata": "YTM", "iso": "CA", "status": 1, "name": "La Macaza / Mont-Tremblant International Inc Airport", "continent": "NA", "type": "airport", "size": "medium"}}, {"type": "Feature", "geometry": {"type": "Point", "coordinates": [-101.683334, 54.683334]}, "properties": {"iata": "YFO", "iso": "CA", "status": 1, "name": "Flin Flon Airport", "continent": "NA", "type": "airport", "size": "medium"}}, {"type": "Feature", "geometry": {"type": "Point", "coordinates": [-113.683334, 61.183334]}, "properties": {"iata": "YFR", "iso": "CA", "status": 1, "name": "Fort Resolution Airport", "continent": "NA", "type": "airport", "size": "medium"}}, {"type": "Feature", "geometry": {"type": "Point", "coordinates": [-121.23333, 61.75]}, "properties": {"iata": "YFS", "iso": "CA", "status": 1, "name": "Fort Simpson Airport", "continent": "NA", "type": "airport", "size": "medium"}}, {"type": "Feature", "geometry": {"type": "Point", "coordinates": [-59.166668, 55.166668]}, "properties": {"iata": "YMN", "iso": "CA", "status": 1, "name": "Makkovik Airport", "continent": "NA", "type": "airport", "size": "medium"}}, {"type": "Feature", "geometry": {"type": "Point", "coordinates": [-124.53333, 49.7]}, "properties": {"iata": "YGB", "iso": "CA", "status": 1, "name": "Texada Gillies Bay Airport", "continent": "NA", "type": "airport", "size": "medium"}}, {"type": "Feature", "geometry": {"type": "Point", "coordinates": [-128.65, 66.26667]}, "properties": {"iata": "YGH", "iso": "CA", "status": 1, "name": "Fort Good Hope Airport", "continent": "NA", "type": "airport", "size": "medium"}}, {"type": "Feature", "geometry": {"type": "Point", "coordinates": [-76.59366, 44.219513]}, "properties": {"iata": "YGK", "iso": "CA", "status": 1, "name": "Kingston Norman Rogers Airport", "continent": "NA", "type": "airport", "size": "medium"}}, {"type": "Feature", "geometry": {"type": "Point", "coordinates": [-77.70639, 53.629723]}, "properties": {"iata": "YGL", "iso": "CA", "status": 1, "name": null, "continent": "NA", "type": "airport", "size": "medium"}}, {"type": "Feature", "geometry": {"type": "Point", "coordinates": [-97.0, 50.666668]}, "properties": {"iata": "YGM", "iso": "CA", "status": 1, "name": "Gimli Industrial Park Airport", "continent": "NA", "type": "airport", "size": "medium"}}, {"type": "Feature", "geometry": {"type": "Point", "coordinates": [-94.49117, 54.5577]}, "properties": {"iata": "YGO", "iso": "CA", "status": 1, "name": "Gods Lake Narrows Airport", "continent": "NA", "type": "airport", "size": "medium"}}, {"type": "Feature", "geometry": {"type": "Point", "coordinates": [-64.48333, 48.766666]}, "properties": {"iata": "YGP", "iso": "CA", "status": 1, "name": null, "continent": "NA", "type": "airport", "size": "medium"}}, {"type": "Feature", "geometry": {"type": "Point", "coordinates": [-86.93593, 49.779892]}, "properties": {"iata": "YGQ", "iso": "CA", "status": 1, "name": "Geraldton Greenstone Regional Airport", "continent": "NA", "type": "airport", "size": "medium"}}, {"type": "Feature", "geometry": {"type": "Point", "coordinates": [-61.9, 47.36667]}, "properties": {"iata": "YGR", "iso": "CA", "status": 1, "name": null, "continent": "NA", "type": "airport", "size": "medium"}}, {"type": "Feature", "geometry": {"type": "Point", "coordinates": [-81.816666, 69.4]}, "properties": {"iata": "YGT", "iso": "CA", "status": 1, "name": "Igloolik Airport", "continent": "NA", "type": "airport", "size": "medium"}}, {"type": "Feature", "geometry": {"type": "Point", "coordinates": [-63.583332, 50.25]}, "properties": {"iata": "YGV", "iso": "CA", "status": 1, "name": "Havre St Pierre Airport", "continent": "NA", "type": "airport", "size": "medium"}}, {"type": "Feature", "geometry": {"type": "Point", "coordinates": [-77.76667, 55.279167]}, "properties": {"iata": "YGW", "iso": "CA", "status": 1, "name": "Kuujjuarapik Airport", "continent": "NA", "type": "airport", "size": "medium"}}, {"type": "Feature", "geometry": {"type": "Point", "coordinates": [-94.7, 56.35]}, "properties": {"iata": "YGX", "iso": "CA", "status": 1, "name": "Gillam Airport", "continent": "NA", "type": "airport", "size": "medium"}}, {"type": "Feature", "geometry": {"type": "Point", "coordinates": [-82.95722, 76.41778]}, "properties": {"iata": "YGZ", "iso": "CA", "status": 1, "name": "Grise Fiord Airport", "continent": "NA", "type": "airport", "size": "medium"}}, {"type": "Feature", "geometry": {"type": "Point", "coordinates": [-69.63333, 61.333332]}, "properties": {"iata": "YQC", "iso": "CA", "status": 1, "name": "Quaqtaq Airport", "continent": "NA", "type": "airport", "size": "medium"}}, {"type": "Feature", "geometry": {"type": "Point", "coordinates": [-92.833336, 49.783333]}, "properties": {"iata": "YHD", "iso": "CA", "status": 1, "name": "Dryden Regional Airport", "continent": "NA", "type": "airport", "size": "medium"}}, {"type": "Feature", "geometry": {"type": "Point", "coordinates": [-121.416664, 49.416668]}, "properties": {"iata": "YHE", "iso": "CA", "status": 1, "name": "Hope Airport", "continent": "NA", "type": "airport", "size": "medium"}}, {"type": "Feature", "geometry": {"type": "Point", "coordinates": [-83.683334, 49.716667]}, "properties": {"iata": "YHF", "iso": "CA", "status": 1, "name": null, "continent": "NA", "type": "airport", "size": "medium"}}, {"type": "Feature", "geometry": {"type": "Point", "coordinates": [-76.74167, 49.74167]}, "properties": {"iata": "YNS", "iso": "CA", "status": 1, "name": "Nemiscau Airport", "continent": "NA", "type": "airport", "size": "medium"}}, {"type": "Feature", "geometry": {"type": "Point", "coordinates": [-117.71667, 70.71667]}, "properties": {"iata": "YHI", "iso": "CA", "status": 1, "name": "Ulukhaktok Holman Airport", "continent": "NA", "type": "airport", "size": "medium"}}, {"type": "Feature", "geometry": {"type": "Point", "coordinates": [-95.95, 68.63333]}, "properties": {"iata": "YHK", "iso": "CA", "status": 1, "name": "Gjoa Haven Airport", "continent": "NA", "type": "airport", "size": "medium"}}, {"type": "Feature", "geometry": {"type": "Point", "coordinates": [-79.92631, 43.16138]}, "properties": {"iata": "YHM", "iso": "CA", "status": 1, "name": "John C. Munro Hamilton International Airport", "continent": "NA", "type": "airport", "size": "medium"}}, {"type": "Feature", "geometry": {"type": "Point", "coordinates": [-84.78333, 49.216667]}, "properties": {"iata": "YHN", "iso": "CA", "status": 1, "name": "Hornepayne Municipal Airport", "continent": "NA", "type": "airport", "size": "medium"}}, {"type": "Feature", "geometry": {"type": "Point", "coordinates": [-60.229443, 55.448334]}, "properties": {"iata": "YHO", "iso": "CA", "status": 1, "name": "Hopedale Airport", "continent": "NA", "type": "airport", "size": "medium"}}, {"type": "Feature", "geometry": {"type": "Point", "coordinates": [-59.5, 50.5]}, "properties": {"iata": "YHR", "iso": "CA", "status": 1, "name": "Chevery Airport", "continent": "NA", "type": "airport", "size": "medium"}}, {"type": "Feature", "geometry": {"type": "Point", "coordinates": [-137.5, 60.75]}, "properties": {"iata": "YHT", "iso": "CA", "status": 1, "name": "Haines Junction Airport", "continent": "NA", "type": "airport", "size": "medium"}}, {"type": "Feature", "geometry": {"type": "Point", "coordinates": [-73.6, 45.5]}, "properties": {"iata": "YHU", "iso": "CA", "status": 1, "name": null, "continent": "NA", "type": "airport", "size": "medium"}}, {"type": "Feature", "geometry": {"type": "Point", "coordinates": [-115.778336, 60.845554]}, "properties": {"iata": "YHY", "iso": "CA", "status": 1, "name": "Hay River / Merlyn Carter Airport", "continent": "NA", "type": "airport", "size": "medium"}}, {"type": "Feature", "geometry": {"type": "Point", "coordinates": [-63.51425, 44.88496]}, "properties": {"iata": "YHZ", "iso": "CA", "status": 1, "name": "Halifax / Stanfield International Airport", "continent": "NA", "type": "airport", "size": "large"}}, {"type": "Feature", "geometry": {"type": "Point", "coordinates": [-91.61667, 48.75]}, "properties": {"iata": "YIB", "iso": "CA", "status": 1, "name": "Atikokan Municipal Airport", "continent": "NA", "type": "airport", "size": "medium"}}, {"type": "Feature", "geometry": {"type": "Point", "coordinates": [-65.76667, 44.61667]}, "properties": {"iata": "YDG", "iso": "CA", "status": 1, "name": "Digby / Annapolis Regional Airport", "continent": "NA", "type": "airport", "size": "medium"}}, {"type": "Feature", "geometry": {"type": "Point", "coordinates": [-58.666668, 51.216667]}, "properties": {"iata": "YIF", "iso": "CA", "status": 1, "name": "St Augustin Airport", "continent": "NA", "type": "airport", "size": "medium"}}, {"type": "Feature", "geometry": {"type": "Point", "coordinates": [-76.083336, 62.416668]}, "properties": {"iata": "YIK", "iso": "CA", "status": 1, "name": "Ivujivik Airport", "continent": "NA", "type": "airport", "size": "medium"}}, {"type": "Feature", "geometry": {"type": "Point", "coordinates": [-78.0, 72.683334]}, "properties": {"iata": "YIO", "iso": "CA", "status": 1, "name": "Pond Inlet Airport", "continent": "NA", "type": "airport", "size": "medium"}}, {"type": "Feature", "geometry": {"type": "Point", "coordinates": [-94.653046, 53.856785]}, "properties": {"iata": "YIV", "iso": "CA", "status": 1, "name": "Island Lake Airport", "continent": "NA", "type": "airport", "size": "medium"}}, {"type": "Feature", "geometry": {"type": "Point", "coordinates": [-123.46667, 60.25]}, "properties": {"iata": "YJF", "iso": "CA", "status": 1, "name": "Fort Liard Airport", "continent": "NA", "type": "airport", "size": "medium"}}, {"type": "Feature", "geometry": {"type": "Point", "coordinates": [-73.333336, 45.333332]}, "properties": {"iata": "YJN", "iso": "CA", "status": 1, "name": "St Jean Airport", "continent": "NA", "type": "airport", "size": "medium"}}, {"type": "Feature", "geometry": {"type": "Point", "coordinates": [-58.55, 48.533333]}, "properties": {"iata": "YJT", "iso": "CA", "status": 1, "name": "Stephenville Airport", "continent": "NA", "type": "airport", "size": "medium"}}, {"type": "Feature", "geometry": {"type": "Point", "coordinates": [-120.442024, 50.70545]}, "properties": {"iata": "YKA", "iso": "CA", "status": 1, "name": "Kamloops Airport", "continent": "NA", "type": "airport", "size": "medium"}}, {"type": "Feature", "geometry": {"type": "Point", "coordinates": [-134.98584, 68.22222]}, "properties": {"iata": "LAK", "iso": "CA", "status": 1, "name": "Aklavik Airport", "continent": "NA", "type": "airport", "size": "medium"}}, {"type": "Feature", "geometry": {"type": "Point", "coordinates": [-80.385056, 43.458977]}, "properties": {"iata": "YKF", "iso": "CA", "status": 1, "name": "Waterloo Airport", "continent": "NA", "type": "airport", "size": "medium"}}, {"type": "Feature", "geometry": {"type": "Point", "coordinates": [-105.61864, 57.256287]}, "properties": {"iata": "YKJ", "iso": "CA", "status": 1, "name": "Key Lake Airport", "continent": "NA", "type": "airport", "size": "medium"}}, {"type": "Feature", "geometry": {"type": "Point", "coordinates": [-64.816666, 54.783333]}, "properties": {"iata": "YKL", "iso": "CA", "status": 1, "name": "Schefferville Airport", "continent": "NA", "type": "airport", "size": "medium"}}, {"type": "Feature", "geometry": {"type": "Point", "coordinates": [-78.583336, 60.733334]}, "properties": {"iata": "AKV", "iso": "CA", "status": 1, "name": "Akulivik Airport", "continent": "NA", "type": "airport", "size": "medium"}}, {"type": "Feature", "geometry": {"type": "Point", "coordinates": [-78.75, 51.4875]}, "properties": {"iata": "YKQ", "iso": "CA", "status": 1, "name": "Waskaganish Airport", "continent": "NA", "type": "airport", "size": "medium"}}, {"type": "Feature", "geometry": {"type": "Point", "coordinates": [-80.03333, 48.15]}, "properties": {"iata": "YKX", "iso": "CA", "status": 1, "name": "Kirkland Lake Airport", "continent": "NA", "type": "airport", "size": "medium"}}, {"type": "Feature", "geometry": {"type": "Point", "coordinates": [-109.17811, 51.517605]}, "properties": {"iata": "YKY", "iso": "CA", "status": 1, "name": "Kindersley Airport", "continent": "NA", "type": "airport", "size": "medium"}}, {"type": "Feature", "geometry": {"type": "Point", "coordinates": [-79.36774, 43.86131]}, "properties": {"iata": "YKZ", "iso": "CA", "status": 1, "name": "Buttonville Municipal Airport", "continent": "NA", "type": "airport", "size": "medium"}}, {"type": "Feature", "geometry": {"type": "Point", "coordinates": [-69.666664, 59.3]}, "properties": {"iata": "YPJ", "iso": "CA", "status": 1, "name": "Aupaluk Airport", "continent": "NA", "type": "airport", "size": "medium"}}, {"type": "Feature", "geometry": {"type": "Point", "coordinates": [-69.88333, 62.85]}, "properties": {"iata": "YLC", "iso": "CA", "status": 1, "name": "Kimmirut Airport", "continent": "NA", "type": "airport", "size": "medium"}}, {"type": "Feature", "geometry": {"type": "Point", "coordinates": [-83.352776, 47.819443]}, "properties": {"iata": "YLD", "iso": "CA", "status": 1, "name": "Chapleau Airport", "continent": "NA", "type": "airport", "size": "medium"}}, {"type": "Feature", "geometry": {"type": "Point", "coordinates": [-87.93, 52.183334]}, "properties": {"iata": "YLH", "iso": "CA", "status": 1, "name": "Lansdowne House Airport", "continent": "NA", "type": "airport", "size": "medium"}}, {"type": "Feature", "geometry": {"type": "Point", "coordinates": [-108.666664, 54.5]}, "properties": {"iata": "YLJ", "iso": "CA", "status": 1, "name": "Meadow Lake Airport", "continent": "NA", "type": "airport", "size": "medium"}}, {"type": "Feature", "geometry": {"type": "Point", "coordinates": [-110.075554, 62.41861]}, "properties": {"iata": "YSG", "iso": "CA", "status": 1, "name": "Lutselk'e Airport", "continent": "NA", "type": "airport", "size": "medium"}}, {"type": "Feature", "geometry": {"type": "Point", "coordinates": [-110.072716, 53.31297]}, "properties": {"iata": "YLL", "iso": "CA", "status": 1, "name": "Lloydminster Airport", "continent": "NA", "type": "airport", "size": "medium"}}, {"type": "Feature", "geometry": {"type": "Point", "coordinates": [-100.03333, 56.5]}, "properties": {"iata": "YLR", "iso": "CA", "status": 1, "name": "Leaf Rapids Airport", "continent": "NA", "type": "airport", "size": "medium"}}, {"type": "Feature", "geometry": {"type": "Point", "coordinates": [-62.283333, 82.51667]}, "properties": {"iata": "YLT", "iso": "CA", "status": 1, "name": "Alert Airport", "continent": "NA", "type": "airport", "size": "medium"}}, {"type": "Feature", "geometry": {"type": "Point", "coordinates": [-65.98333, 58.5]}, "properties": {"iata": "XGR", "iso": "CA", "status": 1, "name": "Kangiqsualujjuaq (Georges River) Airport", "continent": "NA", "type": "airport", "size": "medium"}}, {"type": "Feature", "geometry": {"type": "Point", "coordinates": [-119.38139, 49.95154]}, "properties": {"iata": "YLW", "iso": "CA", "status": 1, "name": "Kelowna Airport", "continent": "NA", "type": "airport", "size": "medium"}}, {"type": "Feature", "geometry": {"type": "Point", "coordinates": [-135.87361, 63.61639]}, "properties": {"iata": "YMA", "iso": "CA", "status": 1, "name": "Mayo Airport", "continent": "NA", "type": "airport", "size": "medium"}}, {"type": "Feature", "geometry": {"type": "Point", "coordinates": [-67.51667, 48.833332]}, "properties": {"iata": "YME", "iso": "CA", "status": 1, "name": "Matane Airport", "continent": "NA", "type": "airport", "size": "medium"}}, {"type": "Feature", "geometry": {"type": "Point", "coordinates": [-85.86667, 49.083332]}, "properties": {"iata": "YMG", "iso": "CA", "status": 1, "name": "Manitouwadge Airport", "continent": "NA", "type": "airport", "size": "medium"}}, {"type": "Feature", "geometry": {"type": "Point", "coordinates": [-55.833332, 52.3]}, "properties": {"iata": "YMH", "iso": "CA", "status": 1, "name": "Mary's Harbour Airport", "continent": "NA", "type": "airport", "size": "medium"}}, {"type": "Feature", "geometry": {"type": "Point", "coordinates": [-105.53333, 50.38333]}, "properties": {"iata": "YMJ", "iso": "CA", "status": 1, "name": "Moose Jaw Air Vice Marshal C. M. McEwen Airport", "continent": "NA", "type": "airport", "size": "medium"}}, {"type": "Feature", "geometry": {"type": "Point", "coordinates": [-70.166664, 47.65]}, "properties": {"iata": "YML", "iso": "CA", "status": 1, "name": "Charlevoix Airport", "continent": "NA", "type": "airport", "size": "medium"}}, {"type": "Feature", "geometry": {"type": "Point", "coordinates": [-111.22395, 56.65659]}, "properties": {"iata": "YMM", "iso": "CA", "status": 1, "name": "Fort McMurray Airport", "continent": "NA", "type": "airport", "size": "medium"}}, {"type": "Feature", "geometry": {"type": "Point", "coordinates": [-80.604164, 51.29111]}, "properties": {"iata": "YMO", "iso": "CA", "status": 1, "name": "Moosonee Airport", "continent": "NA", "type": "airport", "size": "medium"}}, {"type": "Feature", "geometry": {"type": "Point", "coordinates": [-74.36667, 49.916668]}, "properties": {"iata": "YMT", "iso": "CA", "status": 1, "name": "Chapais Airport", "continent": "NA", "type": "airport", "size": "medium"}}, {"type": "Feature", "geometry": {"type": "Point", "coordinates": [-76.51833, 56.53611]}, "properties": {"iata": "YUD", "iso": "CA", "status": 1, "name": "Umiujaq Airport", "continent": "NA", "type": "airport", "size": "medium"}}, {"type": "Feature", "geometry": {"type": "Point", "coordinates": [-74.03, 45.666668]}, "properties": {"iata": "YMX", "iso": "CA", "status": 1, "name": "Montreal International (Mirabel) Airport", "continent": "NA", "type": "airport", "size": "medium"}}, {"type": "Feature", "geometry": {"type": "Point", "coordinates": [-61.8, 50.183334]}, "properties": {"iata": "YNA", "iso": "CA", "status": 1, "name": "Natashquan Airport", "continent": "NA", "type": "airport", "size": "medium"}}, {"type": "Feature", "geometry": {"type": "Point", "coordinates": [-78.816666, 53.0]}, "properties": {"iata": "YNC", "iso": "CA", "status": 1, "name": "Wemindji Airport", "continent": "NA", "type": "airport", "size": "medium"}}, {"type": "Feature", "geometry": {"type": "Point", "coordinates": [-75.56283, 45.52063]}, "properties": {"iata": "YND", "iso": "CA", "status": 1, "name": "Ottawa / Gatineau Airport", "continent": "NA", "type": "airport", "size": "medium"}}, {"type": "Feature", "geometry": {"type": "Point", "coordinates": [-97.84583, 53.954166]}, "properties": {"iata": "YNE", "iso": "CA", "status": 1, "name": "Norway House Airport", "continent": "NA", "type": "airport", "size": "medium"}}, {"type": "Feature", "geometry": {"type": "Point", "coordinates": [-104.08111, 58.275]}, "properties": {"iata": "YNL", "iso": "CA", "status": 1, "name": "Points North Landing Airport", "continent": "NA", "type": "airport", "size": "medium"}}, {"type": "Feature", "geometry": {"type": "Point", "coordinates": [-77.8, 49.75]}, "properties": {"iata": "YNM", "iso": "CA", "status": 1, "name": "Matagami Airport", "continent": "NA", "type": "airport", "size": "medium"}}, {"type": "Feature", "geometry": {"type": "Point", "coordinates": [119.23333, -22.766666]}, "properties": {"iata": "YNN", "iso": "CA", "status": 1, "name": "Nejanilini Lake Airport", "continent": "NA", "type": "airport", "size": "medium"}}, {"type": "Feature", "geometry": {"type": "Point", "coordinates": [-111.70111, 57.381668]}, "properties": {"iata": "HZP", "iso": "CA", "status": 1, "name": "Fort Mackay / Horizon Airport", "continent": "NA", "type": "airport", "size": "small"}}, {"type": "Feature", "geometry": {"type": "Point", "coordinates": [-110.61444, 64.69945]}, "properties": {"iata": "YOA", "iso": "CA", "status": 1, "name": "Ekati Airport", "continent": "NA", "type": "airport", "size": "medium"}}, {"type": "Feature", "geometry": {"type": "Point", "coordinates": [-139.83333, 67.583336]}, "properties": {"iata": "YOC", "iso": "CA", "status": 1, "name": "Old Crow Airport", "continent": "NA", "type": "airport", "size": "medium"}}, {"type": "Feature", "geometry": {"type": "Point", "coordinates": [-110.25, 54.466667]}, "properties": {"iata": "YOD", "iso": "CA", "status": 1, "name": "CFB Cold Lake", "continent": "NA", "type": "airport", "size": "medium"}}, {"type": "Feature", "geometry": {"type": "Point", "coordinates": [-95.27668, 54.934242]}, "properties": {"iata": "YOH", "iso": "CA", "status": 1, "name": "Oxford House Airport", "continent": "NA", "type": "airport", "size": "medium"}}, {"type": "Feature", "geometry": {"type": "Point", "coordinates": [-117.168335, 58.618332]}, "properties": {"iata": "YOJ", "iso": "CA", "status": 1, "name": "High Level Airport", "continent": "NA", "type": "airport", "size": "medium"}}, {"type": "Feature", "geometry": {"type": "Point", "coordinates": [-78.9, 43.916668]}, "properties": {"iata": "YOO", "iso": "CA", "status": 1, "name": "Oshawa Airport", "continent": "NA", "type": "airport", "size": "medium"}}, {"type": "Feature", "geometry": {"type": "Point", "coordinates": [-119.4, 58.5]}, "properties": {"iata": "YOP", "iso": "CA", "status": 1, "name": "Rainbow Lake Airport", "continent": "NA", "type": "airport", "size": "medium"}}, {"type": "Feature", "geometry": {"type": "Point", "coordinates": [-80.8375, 44.59028]}, "properties": {"iata": "YOS", "iso": "CA", "status": 1, "name": "Owen Sound / Billy Bishop Regional Airport", "continent": "NA", "type": "airport", "size": "medium"}}, {"type": "Feature", "geometry": {"type": "Point", "coordinates": [-75.672775, 45.32083]}, "properties": {"iata": "YOW", "iso": "CA", "status": 1, "name": "Ottawa Macdonald-Cartier International Airport", "continent": "NA", "type": "airport", "size": "large"}}, {"type": "Feature", "geometry": {"type": "Point", "coordinates": [-105.683334, 53.216667]}, "properties": {"iata": "YPA", "iso": "CA", "status": 1, "name": "Prince Albert Glass Field", "continent": "NA", "type": "airport", "size": "medium"}}, {"type": "Feature", "geometry": {"type": "Point", "coordinates": [-124.07468, 69.35514]}, "properties": {"iata": "YPC", "iso": "CA", "status": 1, "name": "Paulatuk (Nora Aliqatchialuk Ruben) Airport", "continent": "NA", "type": "airport", "size": "medium"}}, {"type": "Feature", "geometry": {"type": "Point", "coordinates": [-61.35, 45.61667]}, "properties": {"iata": "YPS", "iso": "CA", "status": 1, "name": "Port Hawkesbury Airport", "continent": "NA", "type": "airport", "size": "medium"}}, {"type": "Feature", "geometry": {"type": "Point", "coordinates": [-117.44028, 56.22778]}, "properties": {"iata": "YPE", "iso": "CA", "status": 1, "name": "Peace River Airport", "continent": "NA", "type": "airport", "size": "medium"}}, {"type": "Feature", "geometry": {"type": "Point", "coordinates": [-98.3, 49.966667]}, "properties": {"iata": "YPG", "iso": "CA", "status": 1, "name": "Southport Airport", "continent": "NA", "type": "airport", "size": "medium"}}, {"type": "Feature", "geometry": {"type": "Point", "coordinates": [-78.166664, 58.433334]}, "properties": {"iata": "YPH", "iso": "CA", "status": 1, "name": "Inukjuak Airport", "continent": "NA", "type": "airport", "size": "medium"}}, {"type": "Feature", "geometry": {"type": "Point", "coordinates": [-90.208336, 51.208332]}, "properties": {"iata": "YPL", "iso": "CA", "status": 1, "name": "Pickle Lake Airport", "continent": "NA", "type": "airport", "size": "medium"}}, {"type": "Feature", "geometry": {"type": "Point", "coordinates": [-93.97287, 51.817375]}, "properties": {"iata": "YPM", "iso": "CA", "status": 1, "name": "Pikangikum Airport", "continent": "NA", "type": "airport", "size": "medium"}}, {"type": "Feature", "geometry": {"type": "Point", "coordinates": [-64.28831, 49.836533]}, "properties": {"iata": "YPN", "iso": "CA", "status": 1, "name": "Port Menier Airport", "continent": "NA", "type": "airport", "size": "medium"}}, {"type": "Feature", "geometry": {"type": "Point", "coordinates": [-85.433334, 54.983334]}, "properties": {"iata": "YPO", "iso": "CA", "status": 1, "name": "Peawanuck Airport", "continent": "NA", "type": "airport", "size": "medium"}}, {"type": "Feature", "geometry": {"type": "Point", "coordinates": [-78.316666, 44.3]}, "properties": {"iata": "YPQ", "iso": "CA", "status": 1, "name": "Peterborough Airport", "continent": "NA", "type": "airport", "size": "medium"}}, {"type": "Feature", "geometry": {"type": "Point", "coordinates": [-130.44083, 54.287224]}, "properties": {"iata": "YPR", "iso": "CA", "status": 1, "name": "Prince Rupert Airport", "continent": "NA", "type": "airport", "size": "medium"}}, {"type": "Feature", "geometry": {"type": "Point", "coordinates": [-124.5, 49.816666]}, "properties": {"iata": "YPW", "iso": "CA", "status": 1, "name": "Powell River Airport", "continent": "NA", "type": "airport", "size": "medium"}}, {"type": "Feature", "geometry": {"type": "Point", "coordinates": [-77.166664, 60.033333]}, "properties": {"iata": "YPX", "iso": "CA", "status": 1, "name": "Puvirnituq Airport", "continent": "NA", "type": "airport", "size": "medium"}}, {"type": "Feature", "geometry": {"type": "Point", "coordinates": [-111.11406, 58.76799]}, "properties": {"iata": "YPY", "iso": "CA", "status": 1, "name": "Fort Chipewyan Airport", "continent": "NA", "type": "airport", "size": "medium"}}, {"type": "Feature", "geometry": {"type": "Point", "coordinates": [-79.3, 44.966667]}, "properties": {"iata": "YQA", "iso": "CA", "status": 1, "name": "Muskoka Airport", "continent": "NA", "type": "airport", "size": "medium"}},